[{"id":"Submission of details pursuant to condition no.4 (Remediation scheme), 7 (Piling Method Statement...","desc":"","addr":"7-15 Blount Street, London, E14 7RL","postcode":"E14 7RL","link":"https://development.towerhamlets.gov.uk/online-applications/applicationDetails.do?keyVal=DCAPR_149665&activeTab=summary","status":"Unknown","date_received":"2025-12-29","lat":51.51496,"lng":-0.036271},{"id":"Proposed replacement of the corner windows to flats 21, 24, 25, 26, 27, 28 and 29 at the second f...","desc":"","addr":"Anchorage Point, 42 Cuba Street, London E14 8NE","postcode":"E14 8NE","link":"https://development.towerhamlets.gov.uk/online-applications/applicationDetails.do?keyVal=DCAPR_149630&activeTab=summary","status":"Unknown","date_received":"2025-12-29","lat":51.501945,"lng":-0.027061},{"id":"x1 illuminated entrance panel, x2 illuminated projected hanging signs, x2 non illuminated fascia ...","desc":"","addr":"Unit CR40 Level Minus One, Crossrail Station and Retail Mall, 1 Crossrail Place, LONDON, E14 5AR","postcode":"E14 5AR","link":"https://development.towerhamlets.gov.uk/online-applications/applicationDetails.do?keyVal=DCAPR_149590&activeTab=summary","status":"Unknown","date_received":"2025-12-29","lat":51.506133,"lng":-0.017816},{"id":"Change of use from a C3 residential dwelling to a C2 residential institution to operate as a smal...","desc":"","addr":"48 Alpha Grove, London, E14 8LH","postcode":"E14 8LH","link":"https://development.towerhamlets.gov.uk/online-applications/applicationDetails.do?keyVal=DCAPR_149545&activeTab=summary","status":"Unknown","date_received":"2025-12-29","lat":51.499137,"lng":-0.02371},{"id":"Retrospective application for change of use of from Restaurant (Class E) to a mixed Restaurant an...","desc":"","addr":"141 Manchester Road, London, E14 3DN","postcode":"E14 3DN","link":"https://development.towerhamlets.gov.uk/online-applications/applicationDetails.do?keyVal=DCAPR_149532&activeTab=summary","status":"Unknown","date_received":"2025-12-29","lat":51.48871,"lng":-0.008072},{"id":"Application for non-material amendment to planning permission ref: PA/24/00985 dated 05/11/2025 N...","desc":"","addr":"East India Dock House, 240 East India Dock Road, London, E14 9YY","postcode":"E14 9YY","link":"https://development.towerhamlets.gov.uk/online-applications/applicationDetails.do?keyVal=DCAPR_149616&activeTab=summary","status":"Unknown","date_received":"2025-12-29","lat":51.511149,"lng":-0.006054},{"id":"Submission of details pursuant to condition no.11 (Wind mitigation measures) of planning permissi...","desc":"","addr":"56 - 58 Marsh Wall, London E14 9TP","postcode":"E14 9TP","link":"https://development.towerhamlets.gov.uk/online-applications/applicationDetails.do?keyVal=DCAPR_149558&activeTab=summary","status":"Unknown","date_received":"2025-12-29","lat":51.500761,"lng":-0.021392},{"id":"Submission of Details Pursuant to Condition 16 (Air Quality Neutral assessment) in relation to De...","desc":"","addr":"56 - 58 Marsh Wall, London E14 9TP","postcode":"E14 9TP","link":"https://development.towerhamlets.gov.uk/online-applications/applicationDetails.do?keyVal=DCAPR_149559&activeTab=summary","status":"Unknown","date_received":"2025-12-29","lat":51.500761,"lng":-0.021392},{"id":"Erection of security gates and fences to the north of East India Dock House. (Amendments to schem...","desc":"","addr":"East India Dock House, 240 East India Dock Road, London, E14 9YY","postcode":"E14 9YY","link":"https://development.towerhamlets.gov.uk/online-applications/applicationDetails.do?keyVal=DCAPR_149574&activeTab=summary","status":"Unknown","date_received":"2025-12-29","lat":51.511149,"lng":-0.006054},{"id":"Proposal for x 2 Fascia Signage","desc":"","addr":"Wood Wharf (Development Plot B2), Prestons Road, London, E14 9SF","postcode":"E14 9SF","link":"https://development.towerhamlets.gov.uk/online-applications/applicationDetails.do?keyVal=DCAPR_149575&activeTab=summary","status":"Unknown","date_received":"2025-12-29","lat":0.0,"lng":0.0},{"id":"Application for Non-Material amendment to planning permission ref: PA/23/01299, Dated 30/08/2023....","desc":"","addr":"Land to the North of East India Dock House, 240 East India Dock Road, London E14 9YY","postcode":"E14 9YY","link":"https://development.towerhamlets.gov.uk/online-applications/applicationDetails.do?keyVal=DCAPR_149576&activeTab=summary","status":"Unknown","date_received":"2025-12-29","lat":51.511149,"lng":-0.006054},{"id":"Proposed single storey ground floor rear extension with x2 roof light and a side porch extension","desc":"","addr":"207 East Ferry Road, London, E14 3BB","postcode":"E14 3BB","link":"https://development.towerhamlets.gov.uk/online-applications/applicationDetails.do?keyVal=DCAPR_149442&activeTab=summary","status":"Unknown","date_received":"2025-12-29","lat":51.487655,"lng":-0.013173},{"id":"Submission of details pursuant to Condition No. 2 (Landscaping Management Plan) in respect of plo...","desc":"","addr":"Wood Wharf, Prestons Road, London E14 9SF","postcode":"E14 9SF","link":"https://development.towerhamlets.gov.uk/online-applications/applicationDetails.do?keyVal=DCAPR_149543&activeTab=summary","status":"Unknown","date_received":"2025-12-29","lat":0.0,"lng":0.0},{"id":"Change of use of existing outhouse (fronting Barnes Street, within the curtilage of 633 Commercia...","desc":"","addr":"633 Commercial Road, London, E14 7NT","postcode":"E14 7NT","link":"https://development.towerhamlets.gov.uk/online-applications/applicationDetails.do?keyVal=DCAPR_149505&activeTab=summary","status":"Unknown","date_received":"2025-12-29","lat":51.512898,"lng":-0.039371},{"id":"Submission of details pursuant to condition no.72 (An emergency vehicle access plan) of planning ...","desc":"","addr":"Wood Wharf (Plot B2), Prestons Road, London E14 9SF","postcode":"E14 9SF","link":"https://development.towerhamlets.gov.uk/online-applications/applicationDetails.do?keyVal=DCAPR_149507&activeTab=summary","status":"Unknown","date_received":"2025-12-29","lat":0.0,"lng":0.0},{"id":"Application for certificate of Lawfulness in respect of removal of combustible timber decking, in...","desc":"","addr":"Iona Tower, 33 Ross Way, LONDON, E14 7GG","postcode":"E14 7GG","link":"https://development.towerhamlets.gov.uk/online-applications/applicationDetails.do?keyVal=DCAPR_149469&activeTab=summary","status":"Unknown","date_received":"2025-12-29","lat":51.513095,"lng":-0.033944},{"id":"Application for Certificate of Lawfulness in respect of existing use as a Single Dwelling (C3)","desc":"","addr":"Flat 16, Andersens Wharf, 20 Copenhagen Place, London, E14 7DX","postcode":"E14 7DX","link":"https://development.towerhamlets.gov.uk/online-applications/applicationDetails.do?keyVal=DCAPR_149395&activeTab=summary","status":"Unknown","date_received":"2025-12-29","lat":51.513621,"lng":-0.029352},{"id":"Erection of a first-floor rear extension and conversion of the ground-floor bathroom into a kitchen.","desc":"","addr":"49 Harbinger Road, London, E14 3AA","postcode":"E14 3AA","link":"https://development.towerhamlets.gov.uk/online-applications/applicationDetails.do?keyVal=DCAPR_149485&activeTab=summary","status":"Unknown","date_received":"2025-12-29","lat":51.489866,"lng":-0.018969},{"id":"Works to T001x Cherry Plum - Fell Tree.","desc":"","addr":"Lascar Wharf Community Centre, 19 Parnham Street, London, E14 7FN","postcode":"E14 7FN","link":"https://development.towerhamlets.gov.uk/online-applications/applicationDetails.do?keyVal=DCAPR_149493&activeTab=summary","status":"Unknown","date_received":"2025-12-29","lat":51.514935,"lng":-0.03532},{"id":"Works to T1x London Plane Tree: Reduce the height by 6-7m to previous points leaving a finished h...","desc":"","addr":"7 Macquarie Way, London, E14 3AU","postcode":"E14 3AU","link":"https://development.towerhamlets.gov.uk/online-applications/applicationDetails.do?keyVal=DCAPR_149494&activeTab=summary","status":"Unknown","date_received":"2025-12-29","lat":51.489504,"lng":-0.015614},{"id":"Construction of Electrical Feeder Pillars, Cabinets and Shore Power Units with associated cabling.","desc":"","addr":"Thames Quay, West India South Dock, London, E14 9FJ","postcode":"E14 9FJ","link":"https://development.towerhamlets.gov.uk/online-applications/applicationDetails.do?keyVal=DCAPR_149476&activeTab=summary","status":"Unknown","date_received":"2025-12-29","lat":51.500566,"lng":-0.011459},{"id":"Submission of details pursuant to condition no.8 (Water Impact Study) of planning permission ref:...","desc":"","addr":"Global Switch House, 3 Nutmeg Lane, London, E14 2AX","postcode":"E14 2AX","link":"https://development.towerhamlets.gov.uk/online-applications/applicationDetails.do?keyVal=DCAPR_149468&activeTab=summary","status":"Unknown","date_received":"2025-12-29","lat":51.510943,"lng":-0.003455},{"id":"Application for Prior Approval under Schedule 2, Part 1, Class A of the Town and Country Planning...","desc":"","addr":"196 East Ferry Road, London, E14 3AY","postcode":"E14 3AY","link":"https://development.towerhamlets.gov.uk/online-applications/applicationDetails.do?keyVal=DCAPR_149470&activeTab=summary","status":"Unknown","date_received":"2025-12-29","lat":51.488428,"lng":-0.013716},{"id":"Addition of 4 no. strobic fans to the roof level of consented development at 17 Columbus Courtyar...","desc":"","addr":"17 Columbus Courtyard, London E14 4DA","postcode":"E14 4DA","link":"https://development.towerhamlets.gov.uk/online-applications/applicationDetails.do?keyVal=DCAPR_149458&activeTab=summary","status":"Unknown","date_received":"2025-12-29","lat":51.505929,"lng":-0.025462},{"id":"Application for certificate of Lawfulness in respect of existing external works of combustible ma...","desc":"","addr":"Block F, Basin Approach, London, E14 7JS","postcode":"E14 7JS","link":"https://development.towerhamlets.gov.uk/online-applications/applicationDetails.do?keyVal=DCAPR_149391&activeTab=summary","status":"Unknown","date_received":"2025-12-29","lat":51.51087,"lng":-0.033161}]