[{"id":"Certificate of Lawful Development (proposed) for a conversion of a single-dwelling house into a HMO (6-bed), including changes to windows at rear.","desc":"","addr":"10 Heyford Avenue London Lambeth SW8 1ED","postcode":"SW8 1ED","link":"https://planning.lambeth.gov.uk/online-applications/applicationDetails.do?keyVal=T7MW3MBOMLO00&activeTab=summary","status":"Unknown","date_received":"2025-12-29","lat":51.480372,"lng":-0.122383},{"id":"Installation of Electric Vehicle Charging Infrastructure in the carriageway adjacent to Victoria Mansions","desc":"","addr":"Carriageway Adjacent To 94-105 South Lambeth Road London SW8 1QX","postcode":"SW8 1QX","link":"https://planning.lambeth.gov.uk/online-applications/applicationDetails.do?keyVal=T7EXZYBOMAH00&activeTab=summary","status":"Unknown","date_received":"2025-12-29","lat":51.480083,"lng":-0.123979},{"id":"Installation of Electric Vehicle Charging Infrastructure in the carriageway adjacent to Victoria Mansions","desc":"","addr":"Carriageway Adjacent To 94-105 South Lambeth Road London SW8 1QX","postcode":"SW8 1QX","link":"https://planning.lambeth.gov.uk/online-applications/applicationDetails.do?keyVal=T7EXZYBOMAH00&activeTab=summary","status":"Unknown","date_received":"2025-12-29","lat":51.480083,"lng":-0.123979},{"id":"Erection of a single storey ground floor rear / side extension.","desc":"","addr":"12 Meadow Road London SW8 1QB","postcode":"SW8 1QB","link":"https://planning.lambeth.gov.uk/online-applications/applicationDetails.do?keyVal=T6R0WXBOL6M00&activeTab=summary","status":"Unknown","date_received":"2025-12-29","lat":51.482108,"lng":-0.119057},{"id":"Demolition of an existing garage with the erection of a single storey outbuilding to the rear garden, Flat A.","desc":"","addr":"86 Fentiman Road London SW8 1LA","postcode":"SW8 1LA","link":"https://planning.lambeth.gov.uk/online-applications/applicationDetails.do?keyVal=T6P0NZBOL3M00&activeTab=summary","status":"Unknown","date_received":"2025-12-29","lat":51.481216,"lng":-0.118892},{"id":"Rear garden T2 - Fig tree (Ficus carica) - Reduce spread to north by around 3m through removal of selected lower lateral limbs on north side. Reduce remaining crown to the most recent previous reduction points, removing approx. 2m of new growth. Final height 4m and final overall spread 5m.","desc":"","addr":"104 Lansdowne Way London Lambeth SW8 2EP","postcode":"SW8 2EP","link":"https://planning.lambeth.gov.uk/online-applications/applicationDetails.do?keyVal=T707FCBOLI200&activeTab=summary","status":"Unknown","date_received":"2025-12-29","lat":51.474793,"lng":-0.126097},{"id":"Erection of a single storey ground floor rear side infill extension. (to the ground floor flat)","desc":"","addr":"23 Goldsboro' Road London SW8 4RP","postcode":"SW8 4RP","link":"https://planning.lambeth.gov.uk/online-applications/applicationDetails.do?keyVal=T6Y77JBOLEI00&activeTab=summary","status":"Unknown","date_received":"2025-12-29","lat":51.477102,"lng":-0.131604},{"id":"T1 - Horse Chestnut - to reduce crown by 30%-40% (4m) to old reduction points This tree is getting quit large for the gardens and could do with managing, reducing to where it has been reduced to before. The tree is around 18m in height and will be reduced to 14m.","desc":"","addr":"67 Fentiman Road London SW8 1LH","postcode":"SW8 1LH","link":"https://planning.lambeth.gov.uk/online-applications/applicationDetails.do?keyVal=T6R96RBOL7A00&activeTab=summary","status":"Unknown","date_received":"2025-12-29","lat":51.480431,"lng":-0.117628},{"id":"Application for a Certificate of Lawful Development (Proposed) for the replacement of rear patio doors for like-for-like higher-performance, triple glazed patio doors.","desc":"","addr":"5A Palfrey Place London Lambeth SW8 1PB","postcode":"SW8 1PB","link":"https://planning.lambeth.gov.uk/online-applications/applicationDetails.do?keyVal=T6P8YXBOL4400&activeTab=summary","status":"Unknown","date_received":"2025-12-29","lat":51.480218,"lng":-0.115001},{"id":"Application for a Certificate of Lawful Development (Proposed) with respect to the installation of loft insulation, internal wall insulation and double glazing.","desc":"","addr":"110 Robertson Street London SW8 3TZ","postcode":"SW8 3TZ","link":"https://planning.lambeth.gov.uk/online-applications/applicationDetails.do?keyVal=T6P0PABOL3O00&activeTab=summary","status":"Unknown","date_received":"2025-12-29","lat":51.469011,"lng":-0.146448},{"id":"Rear garden: T1 Walnut. Crown reduce by approximately 3 m to reduce shading and tree debris. T2 Apple. Crown reduce by up to 2 m to contain size and development.","desc":"","addr":"46 Thorne Road London SW8 2BY","postcode":"SW8 2BY","link":"https://planning.lambeth.gov.uk/online-applications/applicationDetails.do?keyVal=T6JXC9BOKRF00&activeTab=summary","status":"Unknown","date_received":"2025-12-29","lat":51.477307,"lng":-0.125288},{"id":"Application for a Certificate of Lawful Development (Proposed) with respect to retrofitting works to the property, involving loft insulation, draught proofing, internal wall insulation, insulated doors, and the replacement of windows with double-glazing windows.","desc":"","addr":"114 Robertson Street London Lambeth SW8 3TZ","postcode":"SW8 3TZ","link":"https://planning.lambeth.gov.uk/online-applications/applicationDetails.do?keyVal=T6LGXCBOKUZ00&activeTab=summary","status":"Unknown","date_received":"2025-12-29","lat":51.469011,"lng":-0.146448},{"id":"Application for a Certificate of Lawfulness (Proposed) with respect to the installation of loft insulation and double glazing.","desc":"","addr":"108 Robertson Street London SW8 3TZ","postcode":"SW8 3TZ","link":"https://planning.lambeth.gov.uk/online-applications/applicationDetails.do?keyVal=T6LGW4BOKUX00&activeTab=summary","status":"Unknown","date_received":"2025-12-29","lat":51.469011,"lng":-0.146448},{"id":"Display of High-quality lettering and branding related to the Skills Centre and Places for London, Informational content regarding training programmes, community engagement, and employment pathways, and Signage zones designed to integrate with the existing blockwork and roller shutters. No illuminated signage is proposed. All elements are non-reflective and securely affixed to the facade or hoarding.","desc":"","addr":"10 Pascal Street London SW8 4SH","postcode":"SW8 4SH","link":"https://planning.lambeth.gov.uk/online-applications/applicationDetails.do?keyVal=T6FRCIBOKN600&activeTab=summary","status":"Unknown","date_received":"2025-12-29","lat":51.480263,"lng":-0.130179},{"id":"Approval of details pursuant to condition 4(Construction Logistics Plan) of planning permission 20/04481/FUL (Demolition of existing buildings and erection of 3 storey building plus setback roof level to provide a 297sqm floorspace of commercial unit (Use Class E) at ground floor level and 14 residential units (Use Class C3) at first, second and third floor levels comprising 2 x studio, 4 x 1 bed, 6 x 2 bed and 2 x 3 bed units, together with the provision of bin and cycle storage) granted on 31.03.2023.","desc":"","addr":"1 -\u00a09 Southville London SW8 2PR","postcode":"SW8 2PR","link":"https://planning.lambeth.gov.uk/online-applications/applicationDetails.do?keyVal=T8ZYR6BOGK300&activeTab=summary","status":"Unknown","date_received":"2026-01-20","lat":51.474834,"lng":-0.131452}]