[{"id":"Listed Building Consent for the installation of a platform lift and associated landscaping","desc":"","addr":"William Kay House 327- 333 Oxford Road Manchester M13 9PG","postcode":"M13 9PG","link":"https://pa.manchester.gov.uk/online-applications/applicationDetails.do?keyVal=T7EU1SBC0J300&activeTab=summary","status":"Unknown","date_received":"2025-12-29","lat":53.464791,"lng":-2.231789},{"id":"To provide new stepped and lift access to the front of William Kay House to improve accessibility. Railings to basement to mitigate fall risk and improve security. Boundary coping stones to be cleaned and reset and front railing reinstated in line with requests from heritage.","desc":"","addr":"William Kay House 327- 333 Oxford Road Manchester M13 9PG","postcode":"M13 9PG","link":"https://pa.manchester.gov.uk/online-applications/applicationDetails.do?keyVal=T7EULVBC0J300&activeTab=summary","status":"Unknown","date_received":"2025-12-29","lat":53.464791,"lng":-2.231789},{"id":"Discharge of Condition 8b (fumes and odours) attached to Planning Permission 137612/FO/2023.","desc":"","addr":"Manchester Grammar School Old Hall Lane Rusholme Manchester M13 0XT","postcode":"M13 0XT","link":"https://pa.manchester.gov.uk/online-applications/applicationDetails.do?keyVal=T7B9GMBCLJ700&activeTab=summary","status":"Unknown","date_received":"2025-12-29","lat":53.449118,"lng":-2.210247},{"id":"Installation of PV panel arrays and roof ladder accesses.","desc":"","addr":"Patrick Cryme Building The Clinical Science Buildings And Peter Mount Building Manchester Royal Infirmary Oxford Road Manchester M13 9WL","postcode":"M13 9WL","link":"https://pa.manchester.gov.uk/online-applications/applicationDetails.do?keyVal=T701AOBCLCH00&activeTab=summary","status":"Unknown","date_received":"2025-12-29","lat":53.462452,"lng":-2.227709},{"id":"Discharge of Conditions 5 (Cycle Store) and 6 (Bin Store) attached to Planning Permission 143050/FO/2025.","desc":"","addr":"50 Richmond Grove Manchester M13 0DP","postcode":"M13 0DP","link":"https://pa.manchester.gov.uk/online-applications/applicationDetails.do?keyVal=T70HX2BCLDO00&activeTab=summary","status":"Unknown","date_received":"2025-12-29","lat":53.460045,"lng":-2.21247},{"id":"Discharge of Condition 4b (CMP) attached to Planning Permission referenced 135576/FO/2022.","desc":"","addr":"88-90 Carmoor Road Manchester M13 0FB","postcode":"M13 0FB","link":"https://pa.manchester.gov.uk/online-applications/applicationDetails.do?keyVal=T708D9BCLD600&activeTab=summary","status":"Unknown","date_received":"2025-12-29","lat":53.460005,"lng":-2.219533},{"id":"Change of Use of existing buildings to create 4no. self-contained flats (C3a) with associated external alterations.","desc":"","addr":"366 Dickenson Road Manchester M13 0NG","postcode":"M13 0NG","link":"https://pa.manchester.gov.uk/online-applications/applicationDetails.do?keyVal=T6XYENBCL9Y00&activeTab=summary","status":"Unknown","date_received":"2025-12-29","lat":53.455405,"lng":-2.203186},{"id":"Erection of two storey side extension to existing dwelling to create a total of four self contained two-bed flats with 3 car parking spaces, front dormers and associated landscaping","desc":"","addr":"19 Slade Lane Manchester M13 0QJ","postcode":"M13 0QJ","link":"https://pa.manchester.gov.uk/online-applications/applicationDetails.do?keyVal=T44JFQBC0HN00&activeTab=summary","status":"Unknown","date_received":"2025-12-29","lat":53.452872,"lng":-2.196608},{"id":"Discharge of condition 61 (Flood Mitigation) attached to planning permission 137399/FO/2023","desc":"","addr":"Land Bounded By Upper Brook Street, Cottenham Street & Kincardine Road Manchester M13 9TD","postcode":"M13 9TD","link":"https://pa.manchester.gov.uk/online-applications/applicationDetails.do?keyVal=T6DQKKBCKY900&activeTab=summary","status":"Unknown","date_received":"2025-12-29","lat":0.0,"lng":0.0},{"id":"Prior Approval for the installation of 20m telecommunications pole with 12 no. antennas and 3 no. associated cabinets.","desc":"","addr":"Upper Brook North Brunswick Street Manchester M13 9SR","postcode":"M13 9SR","link":"https://pa.manchester.gov.uk/online-applications/applicationDetails.do?keyVal=T6E4ESBCKYZ00&activeTab=summary","status":"Unknown","date_received":"2025-12-29","lat":53.467341,"lng":-2.228233}]