[{"id":"Enlargement of dwellinghouse consisting of a hip-to-gable loft conversion with a rear-facing dormer","desc":"","addr":"8 Ellbourne Road Manchester M9 8EU","postcode":"M9 8EU","link":"https://pa.manchester.gov.uk/online-applications/applicationDetails.do?keyVal=T75W9BBC0HN00&activeTab=summary","status":"Unknown","date_received":"2025-12-29","lat":53.526046,"lng":-2.241204},{"id":"Discharge of condition 7 (Environmental Standards) attached to planning permission referenced 134748/FO/2022","desc":"","addr":"53-55 Heathbank Road Manchester M9 0NB","postcode":"M9 0NB","link":"https://pa.manchester.gov.uk/online-applications/applicationDetails.do?keyVal=T7IBOOBCLOJ00&activeTab=summary","status":"Unknown","date_received":"2025-12-29","lat":53.53322,"lng":-2.222114},{"id":"Change of use from dwellinghouse (Use Class C3a) to residential care home (Use Class C2).","desc":"","addr":"2 Pennine Close Manchester M9 6HR","postcode":"M9 6HR","link":"https://pa.manchester.gov.uk/online-applications/applicationDetails.do?keyVal=T6ZSXEBCLBB00&activeTab=summary","status":"Unknown","date_received":"2025-12-29","lat":53.529827,"lng":-2.198578},{"id":"Erection of a two-storey rear and side extension.","desc":"","addr":"26 Longton Road Manchester M9 6WD","postcode":"M9 6WD","link":"https://pa.manchester.gov.uk/online-applications/applicationDetails.do?keyVal=T6LN7HBCL2G00&activeTab=summary","status":"Unknown","date_received":"2025-12-29","lat":53.531198,"lng":-2.221621},{"id":"Erection of two storey rear extension and hip to gable conversion.","desc":"","addr":"10 Rimmington Close Manchester M9 7DP","postcode":"M9 7DP","link":"https://pa.manchester.gov.uk/online-applications/applicationDetails.do?keyVal=T5XKK8BCKOR00&activeTab=summary","status":"Unknown","date_received":"2025-12-29","lat":53.520841,"lng":-2.191854},{"id":"Discharge of Conditions 7 (cycle store), 8 (travel plan), 9 (EVC) and 16 (drainage maintenance) attached to Planning Permission referenced 136721/FO/2023.","desc":"","addr":"Site Of Former Day Nursery Longhurst Road Manchester M9 8NS","postcode":"M9 8NS","link":"https://pa.manchester.gov.uk/online-applications/applicationDetails.do?keyVal=T687ZJBCKUC00&activeTab=summary","status":"Unknown","date_received":"2025-12-29","lat":53.532492,"lng":-2.231344},{"id":"Discharge of Conditions 10 (drainage), 22b (noise verification), 23 (external plant), 25 (NMP) and 26 (off-site highway works) attached to Planning Permission referenced 136722/FO/2023.","desc":"","addr":"Blackley Fire Station 1058 Rochdale Road Manchester M9 7EQ","postcode":"M9 7EQ","link":"https://pa.manchester.gov.uk/online-applications/applicationDetails.do?keyVal=T68141BCKU100&activeTab=summary","status":"Unknown","date_received":"2025-12-29","lat":53.527981,"lng":-2.21118},{"id":"Variation of conditions 2 (specified plans), 23 (Landscaping) and 26 (boundary treatment) attached to planning permission ref: 137912/FO/2023 to enable amendments to the access arrangements from Plant Hill Road.","desc":"","addr":"Former Police Station Plant Hill Road Manchester M9 8LY","postcode":"M9 8LY","link":"https://pa.manchester.gov.uk/online-applications/applicationDetails.do?keyVal=T5CJMGBCKCO00&activeTab=summary","status":"Unknown","date_received":"2025-12-29","lat":53.528006,"lng":-2.227171},{"id":"Attached single storey garage","desc":"","addr":"57 Polefield Road Manchester M9 7EN","postcode":"M9 7EN","link":"https://pa.manchester.gov.uk/online-applications/applicationDetails.do?keyVal=T4S6ACBCJY900&activeTab=summary","status":"Unknown","date_received":"2025-12-29","lat":53.522734,"lng":-2.210083}]