[{"id":"Erection of a two storey in-fill extension for the storage of furniture and maintenance equipment associated with the existing residential units","desc":"","addr":"South Lodge Middleton Road Manchester M8 4NA","postcode":"M8 4NA","link":"https://pa.manchester.gov.uk/online-applications/applicationDetails.do?keyVal=T7AX8EBCLIG00&activeTab=summary","status":"Unknown","date_received":"2025-12-29","lat":53.525952,"lng":-2.247539},{"id":"Elevational alterations to shopfront in association with the subdivision of the existing ground floor to form 2no. ground floor commercial units (Class E use).","desc":"","addr":"452 Cheetham Hill Road Manchester M8 9LE","postcode":"M8 9LE","link":"https://pa.manchester.gov.uk/online-applications/applicationDetails.do?keyVal=T73W9UBCLFR00&activeTab=summary","status":"Unknown","date_received":"2025-12-29","lat":53.509288,"lng":-2.242661},{"id":"Change of Use from Dwellinghouse (Use Class C3) to a Children's Home (Use Class C2) for a maximum of two children, with up to three carers (including a site manager), two of whom will sleep overnight on a rota basis.","desc":"","addr":"7 Birwood Road Manchester M8 4GL","postcode":"M8 4GL","link":"https://pa.manchester.gov.uk/online-applications/applicationDetails.do?keyVal=T6P2SZBCL5T00&activeTab=summary","status":"Unknown","date_received":"2025-12-29","lat":53.521683,"lng":-2.233668},{"id":"Erection of a 4-storey residential building to form 13no. apartments together with creation of vehicular access, associated parking and ancillary spaces.","desc":"","addr":"101 Queens Road Manchester M8 8UT","postcode":"M8 8UT","link":"https://pa.manchester.gov.uk/online-applications/applicationDetails.do?keyVal=T115CDBCHOY00&activeTab=summary","status":"Unknown","date_received":"2025-12-29","lat":53.501001,"lng":-2.233674},{"id":"Erection of 20no. B8 storage units with associated parking and external works.","desc":"","addr":"Land Off Sherborne Street Manchester M8 8LR","postcode":"M8 8LR","link":"https://pa.manchester.gov.uk/online-applications/applicationDetails.do?keyVal=T03KWPBCH3J00&activeTab=summary","status":"Unknown","date_received":"2025-12-29","lat":53.498171,"lng":-2.2421},{"id":"Erection of single-storey rear extension, conversion of garage to form additional living accommodation, two-storey front extension, front and rear roof dormers, hip to gable roof conversion, rendering to front elevation and enlarged driveway.","desc":"","addr":"3 Bettwood Drive Manchester M8 4JT","postcode":"M8 4JT","link":"https://pa.manchester.gov.uk/online-applications/applicationDetails.do?keyVal=T6R32JBCL7E00&activeTab=summary","status":"Unknown","date_received":"2025-12-29","lat":53.521831,"lng":-2.249762},{"id":"Retrospective application for the erection of a domestic outbuilding.","desc":"","addr":"8 Lichfield Drive Manchester M8 0QF","postcode":"M8 0QF","link":"https://pa.manchester.gov.uk/online-applications/applicationDetails.do?keyVal=T5XKJWBCKOP00&activeTab=summary","status":"Unknown","date_received":"2025-12-29","lat":53.505852,"lng":-2.230429},{"id":"Erection of single storey extension to existing garage and conversion into summer house/ home office.","desc":"","addr":"70 Elizabeth Street Manchester M8 8BQ","postcode":"M8 8BQ","link":"https://pa.manchester.gov.uk/online-applications/applicationDetails.do?keyVal=T4J6O6BCJUB00&activeTab=summary","status":"Unknown","date_received":"2025-12-29","lat":53.500453,"lng":-2.242656},{"id":"Erection of two storey front extension to the existing community centre to provide canteen, meeting spaces and library and linked building to provide gym, sports hall and swimming pool alongside associated landscaping/outdoor seating and provision for 54 off-road parking spaces with bicycle store and bin store","desc":"","addr":"Jamia Tul Muntazir Mosque 102 Sherborne Street Manchester M8 8ND","postcode":"M8 8ND","link":"https://pa.manchester.gov.uk/online-applications/applicationDetails.do?keyVal=SEVE3UBCLIR00&activeTab=summary","status":"Unknown","date_received":"2025-12-29","lat":53.499627,"lng":-2.242078},{"id":"Installation of a rooftop photovoltaic (PV) generation system on the Crumpsall Vale Intermediate Care facility","desc":"","addr":"North Manchester General Hospital Delaunays Road Manchester M8 5RB","postcode":"M8 5RB","link":"https://pa.manchester.gov.uk/online-applications/applicationDetails.do?keyVal=T6G1ULBCL0Q00&activeTab=summary","status":"Unknown","date_received":"2025-12-29","lat":53.517898,"lng":-2.229499},{"id":"Retention of single storey side and rear extension, and erection of a first floor side and rear extension.","desc":"","addr":"28 Sedgley Road Manchester M8 5AG","postcode":"M8 5AG","link":"https://pa.manchester.gov.uk/online-applications/applicationDetails.do?keyVal=SKBDD0BC0CT00&activeTab=summary","status":"Unknown","date_received":"2025-12-29","lat":53.514227,"lng":-2.236054}]