[{"id":"Proposed loft conversion and creation of two rear dormers and three front rooflights to provide o...","desc":"","addr":"109 VICTORIA WAY, CHARLTON, LONDON, SE7 7NU","postcode":"SE7 7NU","link":"https://planning.royalgreenwich.gov.uk/online-applications/applicationDetails.do?keyVal=_GRNW_DCAPR_126883&activeTab=summary","status":"Unknown","date_received":"2025-12-29","lat":51.483381,"lng":0.029474},{"id":"Submission of details pursuant to partially discharge of Condition 37 (Secure by Design) of plan...","desc":"","addr":"Morris Walk Estate (South), Maryon Road, Woolwich, London, SE7 8DF","postcode":"SE7 8DF","link":"https://planning.royalgreenwich.gov.uk/online-applications/applicationDetails.do?keyVal=_GRNW_DCAPR_127107&activeTab=summary","status":"Unknown","date_received":"2025-12-29","lat":0.0,"lng":0.0},{"id":"Demolition of existing single storey rear extension, and construction of single storey rear exten...","desc":"","addr":"38 MONTCALM ROAD, CHARLTON, LONDON, SE7 8QQ","postcode":"SE7 8QQ","link":"https://planning.royalgreenwich.gov.uk/online-applications/applicationDetails.do?keyVal=_GRNW_DCAPR_126781&activeTab=summary","status":"Unknown","date_received":"2025-12-29","lat":51.478457,"lng":0.039107},{"id":"Change of use from a single dwelling house (Class C3) to a 6-bed, 6-person HMO (Class C4).","desc":"","addr":"27G THE HEIGHTS, CHARLTON, LONDON, SE7 8JL","postcode":"SE7 8JL","link":"https://planning.royalgreenwich.gov.uk/online-applications/applicationDetails.do?keyVal=_GRNW_DCAPR_126583&activeTab=summary","status":"Unknown","date_received":"2025-12-29","lat":51.483804,"lng":0.036219},{"id":"T1 Sycamore Reduce height from 13m to 11m Reduce width from 8m to 6m Justification - Routine Main...","desc":"","addr":"39 CHARLTON LANE, CHARLTON, LONDON, SE7 8LB","postcode":"SE7 8LB","link":"https://planning.royalgreenwich.gov.uk/online-applications/applicationDetails.do?keyVal=_GRNW_DCAPR_127005&activeTab=summary","status":"Unknown","date_received":"2025-12-29","lat":51.487569,"lng":0.039484},{"id":"T1 - Ash tree - Reduce height from 12meters to 10 meters. Crown radius reduce from 12 to 10m on a...","desc":"","addr":"111 BRAMSHOT AVENUE, CHARLTON, LONDON, SE7 7HX","postcode":"SE7 7HX","link":"https://planning.royalgreenwich.gov.uk/online-applications/applicationDetails.do?keyVal=_GRNW_DCAPR_126966&activeTab=summary","status":"Unknown","date_received":"2025-12-29","lat":51.481504,"lng":0.02412},{"id":"Prior Approval for the construction of a single storey rear extension which will extend beyond th...","desc":"","addr":"87 GREENBAY ROAD, CHARLTON, LONDON, SE7 8PX","postcode":"SE7 8PX","link":"https://planning.royalgreenwich.gov.uk/online-applications/applicationDetails.do?keyVal=_GRNW_DCAPR_126994&activeTab=summary","status":"Unknown","date_received":"2025-12-29","lat":51.477622,"lng":0.043145},{"id":"Certificate of Lawfulness (Existing) is sought for change of use from single dwellinghouse (Class...","desc":"","addr":"190 WOOLWICH ROAD, GREENWICH, LONDON, SE7 7RA","postcode":"SE7 7RA","link":"https://planning.royalgreenwich.gov.uk/online-applications/applicationDetails.do?keyVal=_GRNW_DCAPR_126910&activeTab=summary","status":"Unknown","date_received":"2025-12-29","lat":51.486583,"lng":0.020614},{"id":"Submission of details Pursuant to discharge condition 3 (Brick sample and Details of mortar mix) ...","desc":"","addr":"CHARLTON PARK, CHARLTON PARK ROAD, London, SE7 8QU","postcode":"SE7 8QU","link":"https://planning.royalgreenwich.gov.uk/online-applications/applicationDetails.do?keyVal=_GRNW_DCAPR_126932&activeTab=summary","status":"Unknown","date_received":"2025-12-29","lat":51.475437,"lng":0.037993}]