[{"id":"Rear roof extension; installation of two rooflight to front roofslope","desc":"","addr":"22 First Floor Flat Elthorne Avenue Hanwell W7 2JN","postcode":"W7 2JN","link":"https://pam.ealing.gov.uk/online-applications/applicationDetails.do?keyVal=T77Q0TJMICK00&activeTab=summary","status":"Unknown","date_received":"2025-12-29","lat":51.503249,"lng":-0.329912},{"id":"Minor material amendment (S.73) to vary condition 2 (approved plans) of planning permission reference 252449FUL Dated 07/10/2025 \"Front porch extension; part single, part two storey side/ rear extension (following demolition of existing garage, side extension and rear addition); installation of two windows to side elevation to first floor and Juliet balcony to the rear elevation to first floor; installation of two rooflights to rear roofslope; external alterations (Joint Application)'. Variation seeks change in design to reflect the updated plans and elevations","desc":"","addr":"4 Cantley Road Hanwell W7 2BQ","postcode":"W7 2BQ","link":"https://pam.ealing.gov.uk/online-applications/applicationDetails.do?keyVal=T7D1PXJMIEU00&activeTab=summary","status":"Unknown","date_received":"2025-12-29","lat":51.501108,"lng":-0.327944},{"id":"Details of external building materials pursuant to condition 3, details of the insulation of the building envelope pursuant to condition 8; details of the contaminated land assessment pursuant to condition 9 of planning permission 242710FUL dated 19.05.2025 for 'Construction of two dwellinghouses with provision of cycle storage, bin storage, amenity space, and hard and soft landscaping'","desc":"","addr":"Rosebank Yard Rosebank Road Hanwell W7 2EW","postcode":"W7 2EW","link":"https://pam.ealing.gov.uk/online-applications/applicationDetails.do?keyVal=T6E3DOJMHW200&activeTab=summary","status":"Unknown","date_received":"2025-12-29","lat":51.504464,"lng":-0.338167},{"id":"Alterations to existing single storey rear extension including roof replacement; alterations to fenestration and replacement of all existing windows","desc":"","addr":"75 Clitherow Avenue Hanwell W7 2BL","postcode":"W7 2BL","link":"https://pam.ealing.gov.uk/online-applications/applicationDetails.do?keyVal=T6ZRX9JMI7P00&activeTab=summary","status":"Unknown","date_received":"2025-12-29","lat":51.500111,"lng":-0.326136},{"id":"Construction of two storey dwellinghouse to rear of the original dwellinghouse to be used as HMO (C4) with provision of cycle storage, green roof, bin storage, hard and soft landscaping; Ev charging point); installation of dropped kerb; alterations to side boundary wall; involving replacement of boundary wall; alterations to the fenestrations","desc":"","addr":"90 Boston Road Hanwell W7 2ES","postcode":"W7 2ES","link":"https://pam.ealing.gov.uk/online-applications/applicationDetails.do?keyVal=T708NMJMI8700&activeTab=summary","status":"Unknown","date_received":"2025-12-29","lat":51.5053,"lng":-0.336263},{"id":"Alteration of roof from hip to gable end; rear roof extension; installation of two rooflights to front roofslope, windows within side gable wall and rear elevation first floor level (Lawful Development Certificate for a Proposed Development)","desc":"","addr":"90 Beechmount Avenue Hanwell W7 3AQ","postcode":"W7 3AQ","link":"https://pam.ealing.gov.uk/online-applications/applicationDetails.do?keyVal=T6SLK3JMI4400&activeTab=summary","status":"Unknown","date_received":"2025-12-29","lat":51.522049,"lng":-0.344878},{"id":"Alteration of roof from hip to gable end; rear roof extension; installation of two rooflights to front roofslope, windows within side gable wall and rear elevation first floor level (Lawful Development Certificate for a Proposed Development)","desc":"","addr":"90 Beechmount Avenue Hanwell W7 3AQ","postcode":"W7 3AQ","link":"https://pam.ealing.gov.uk/online-applications/applicationDetails.do?keyVal=T6SLK3JMI4400&activeTab=summary","status":"Unknown","date_received":"2025-12-29","lat":51.522049,"lng":-0.344878},{"id":"Submission of the Noise Impact Assessment pursuant to condition 10 of planning permission 232807FUL dated 27.10.2023 for 'Construction of temporary Community Centre (Use Class F2(b)) together and associated works (10 years period)' (Regulation 3 Application by the London Borough of Ealing)","desc":"","addr":"Land At High Lane Estate Hanwell W7 3RR","postcode":"W7 3RR","link":"https://pam.ealing.gov.uk/online-applications/applicationDetails.do?keyVal=T6R7KCJMI3L00&activeTab=summary","status":"Unknown","date_received":"2025-12-29","lat":51.519819,"lng":-0.34297},{"id":"Application for a Non-Material Amendment (S96a) to planning permission ref: 233101FUL dated: 25.05.2022 for 'Construction of a part single, part two-and part three- storey building comprising six Class C3 residential mews houses together with associated refuse storage, parking and hard and soft landscaping'. Amendment seeks changing the winter gardens to internal study rooms and revising garden boundary lines to maintain the same amount of private amenity space for each unit.","desc":"","addr":"Site Rear Of 68-70 Church Road Hanwell W7 1LB","postcode":"W7 1LB","link":"https://pam.ealing.gov.uk/online-applications/applicationDetails.do?keyVal=T6P4M9JMI2500&activeTab=summary","status":"Unknown","date_received":"2025-12-29","lat":51.511474,"lng":-0.335361},{"id":"Alteration of roof from hip to gable end; rear roof extension; installation of two rooflights to front roofslope and a window within side gable wall (Lawful Development Certificate for a Proposed Development)","desc":"","addr":"40 Elmbank Way Hanwell W7 3DG","postcode":"W7 3DG","link":"https://pam.ealing.gov.uk/online-applications/applicationDetails.do?keyVal=T6LCLRJMHZU00&activeTab=summary","status":"Unknown","date_received":"2025-12-29","lat":51.524845,"lng":-0.342946},{"id":"External alterations to glazing and cladding to existing office building","desc":"","addr":"Boundary House Boston Road Hanwell W7 2QE","postcode":"W7 2QE","link":"https://pam.ealing.gov.uk/online-applications/applicationDetails.do?keyVal=T6LQEEJMI0700&activeTab=summary","status":"Unknown","date_received":"2025-12-29","lat":51.49618,"lng":-0.324797},{"id":"Single storey rear extension (following demolition of existing rear addition) with timber decking","desc":"","addr":"58 St Margarets Road Hanwell W7 2HF","postcode":"W7 2HF","link":"https://pam.ealing.gov.uk/online-applications/applicationDetails.do?keyVal=T6HPXGJMHYH00&activeTab=summary","status":"Unknown","date_received":"2025-12-29","lat":51.503299,"lng":-0.33978},{"id":"Alteration of roof from hip to gable end, rear roof extension, incorporating a Juliet balcony, installation of two front rooflights (Lawful Development Certificate for a Proposed Development)","desc":"","addr":"103 Drayton Bridge Road Hanwell W7 1ER","postcode":"W7 1ER","link":"https://pam.ealing.gov.uk/online-applications/applicationDetails.do?keyVal=T6LT5EJMI0A00&activeTab=summary","status":"Unknown","date_received":"2025-12-29","lat":51.515923,"lng":-0.332662},{"id":"Application for a Non-Material Amendment (S96a) to planning permission ref: 215104FUL dated 11/08/2022 for: Construction of a three storey building with accommodation in the roofspace, comprising 5no. self-contained flats, rear roof terrace at first floor level; and associated refuse storage, amenity space, landscaping and boundary treatment (following demolition of existing dwellinghouse). Amendment seeks addition of small dormer to front elevation.","desc":"","addr":"5 Shakespeare Road Hanwell W7 1LT","postcode":"W7 1LT","link":"https://pam.ealing.gov.uk/online-applications/applicationDetails.do?keyVal=T6L9NYJMHZP00&activeTab=summary","status":"Unknown","date_received":"2025-12-29","lat":51.51434,"lng":-0.335184},{"id":"Rear roof extension; installation of two roofslope (Lawful Development Certificate for a Proposed Development)","desc":"","addr":"58 St Margarets Road Hanwell W7 2HF","postcode":"W7 2HF","link":"https://pam.ealing.gov.uk/online-applications/applicationDetails.do?keyVal=T6FEL3JMHWK00&activeTab=summary","status":"Unknown","date_received":"2025-12-29","lat":51.503299,"lng":-0.33978},{"id":"Single storey rear extension to ground floor flat","desc":"","addr":"15 Southfield Cottages Hanwell W7 2DS","postcode":"W7 2DS","link":"https://pam.ealing.gov.uk/online-applications/applicationDetails.do?keyVal=T6EBPMJMHW900&activeTab=summary","status":"Unknown","date_received":"2025-12-29","lat":51.505011,"lng":-0.332383},{"id":"Rear roof extension incorporating Juliet balcony; and installation of two rooflights to front roofslope (Lawful Development Certificate for a Proposed Development)","desc":"","addr":"7 Deans Road Hanwell W7 3QD","postcode":"W7 3QD","link":"https://pam.ealing.gov.uk/online-applications/applicationDetails.do?keyVal=T6BP8NJMHU200&activeTab=summary","status":"Unknown","date_received":"2025-12-29","lat":51.50654,"lng":-0.333019},{"id":"Single storey side and rear wrap-around extension","desc":"","addr":"38 Framfield Road Hanwell W7 1NH","postcode":"W7 1NH","link":"https://pam.ealing.gov.uk/online-applications/applicationDetails.do?keyVal=T6A8IQJMHTI00&activeTab=summary","status":"Unknown","date_received":"2025-12-29","lat":51.517492,"lng":-0.336136},{"id":"Single storey rear and first floor rear extensions, internal alterations, and all associated works","desc":"","addr":"138 Homefarm Road Hanwell W7 1NP","postcode":"W7 1NP","link":"https://pam.ealing.gov.uk/online-applications/applicationDetails.do?keyVal=T67ZXBJMHRW00&activeTab=summary","status":"Unknown","date_received":"2025-12-29","lat":51.518342,"lng":-0.334563},{"id":"Part single storey side/rear extension (part demolition of existing extension); front porch extension (following demolition of existing front porch extension); alteration to existing extension roof from pitched to flat roof","desc":"","addr":"77 Haslemere Avenue Hanwell W7 2AU","postcode":"W7 2AU","link":"https://pam.ealing.gov.uk/online-applications/applicationDetails.do?keyVal=T5NRACJMHI100&activeTab=summary","status":"Unknown","date_received":"2025-12-29","lat":51.498582,"lng":-0.326106},{"id":"Installation of air source heat pump","desc":"","addr":"26 Campbell Road Hanwell W7 3EB","postcode":"W7 3EB","link":"https://pam.ealing.gov.uk/online-applications/applicationDetails.do?keyVal=T5K7OYJMHFM00&activeTab=summary","status":"Unknown","date_received":"2025-12-29","lat":51.512186,"lng":-0.33803}]