[{"id":"Certificate of Lawfulness (Proposed) is sought for Part One: Erection of Loft conversion comprisi...","desc":"","addr":"114 ALNWICK ROAD, ELTHAM, LONDON, SE12 9BS","postcode":"SE12 9BS","link":"https://planning.royalgreenwich.gov.uk/online-applications/applicationDetails.do?keyVal=_GRNW_DCAPR_127083&activeTab=summary","status":"Unknown","date_received":"2025-12-29","lat":51.444906,"lng":0.024502},{"id":"Construction of a single storey side and rear wrap around extension and all associated works.","desc":"","addr":"40 CRATHIE ROAD, ELTHAM, LONDON, SE12 8BX","postcode":"SE12 8BX","link":"https://planning.royalgreenwich.gov.uk/online-applications/applicationDetails.do?keyVal=_GRNW_DCAPR_127067&activeTab=summary","status":"Unknown","date_received":"2025-12-29","lat":51.451391,"lng":0.02391},{"id":"Demolition of existing garage and conservatory, construction of a part one/part two-storey side a...","desc":"","addr":"26 STRATHAVEN ROAD, ELTHAM, LONDON, SE12 8BY","postcode":"SE12 8BY","link":"https://planning.royalgreenwich.gov.uk/online-applications/applicationDetails.do?keyVal=_GRNW_DCAPR_127129&activeTab=summary","status":"Unknown","date_received":"2026-01-07","lat":51.451198,"lng":0.025701},{"id":"Submission of details pursuant to discharge condition 3 (external materials and finishes), condit...","desc":"","addr":"LAUNDERETTE, RAVENS WAY, ELTHAM, SE12 8EZ","postcode":"SE12 8EZ","link":"https://planning.royalgreenwich.gov.uk/online-applications/applicationDetails.do?keyVal=_GRNW_DCAPR_127212&activeTab=summary","status":"Unknown","date_received":"2026-01-09","lat":51.455606,"lng":0.01726},{"id":"Certificate of Lawfulness (Proposed) is sought for Disabled Adaptations.","desc":"","addr":"1 ADDISON DRIVE, ELTHAM, LONDON, SE12 8UN","postcode":"SE12 8UN","link":"https://planning.royalgreenwich.gov.uk/online-applications/applicationDetails.do?keyVal=_GRNW_DCAPR_127240&activeTab=summary","status":"Unknown","date_received":"2026-01-10","lat":51.453771,"lng":0.022533},{"id":"Certificate of Lawfulness (Proposed) is sought for single storey side extension.","desc":"","addr":"18 SCOTSDALE ROAD, ELTHAM, LONDON, SE12 8BP","postcode":"SE12 8BP","link":"https://planning.royalgreenwich.gov.uk/online-applications/applicationDetails.do?keyVal=_GRNW_DCAPR_127337&activeTab=summary","status":"Unknown","date_received":"2026-01-21","lat":51.451997,"lng":0.026312},{"id":"Replacement of double glazed windows","desc":"","addr":"87 COURTLANDS AVENUE, ELTHAM, LONDON, SE12 8JJ","postcode":"SE12 8JJ","link":"https://planning.royalgreenwich.gov.uk/online-applications/applicationDetails.do?keyVal=_GRNW_DCAPR_126073&activeTab=summary","status":"Unknown","date_received":"2026-01-27","lat":51.456024,"lng":0.022762},{"id":"Demolition and construction of a single-storey rear extension; installation of a new garage door ...","desc":"","addr":"26 WEIGALL ROAD, KIDBROOKE, LONDON, SE12 8HE","postcode":"SE12 8HE","link":"https://planning.royalgreenwich.gov.uk/online-applications/applicationDetails.do?keyVal=_GRNW_DCAPR_127355&activeTab=summary","status":"Unknown","date_received":"2026-01-28","lat":51.455792,"lng":0.018995}]