[{"id":"Consent, agreement or approval required by Condition 5 and 6 to Planning Application 24/01418/FU","desc":"","addr":"Former Swimming Pool Site Lisbon Street Leeds LS1 4PH","postcode":"LS1 4PH","link":"https://publicaccess.leeds.gov.uk/online-applications/applicationDetails.do?keyVal=T7F5SHJBMJZ00&activeTab=summary","status":"Unknown","date_received":"2025-12-29","lat":0.0,"lng":0.0},{"id":"Listed building application for replacement of existing projecting hand painted sign (externally illumintaed) with COR ten projecting internally illuminated sign","desc":"","addr":"Units 3 To 4 Bond House 3 The Bourse Leeds LS1 6EA","postcode":"LS1 6EA","link":"https://publicaccess.leeds.gov.uk/online-applications/applicationDetails.do?keyVal=T7B5FDJBLUN00&activeTab=summary","status":"Unknown","date_received":"2025-12-29","lat":53.795708,"lng":-1.544371},{"id":"Retrospective application for one Internally illuminated Fascia Sign, one internally illuminated projecting sign and two fascia vinyl signs to shopfront","desc":"","addr":"3 Commercial Street Leeds LS1 6AL","postcode":"LS1 6AL","link":"https://publicaccess.leeds.gov.uk/online-applications/applicationDetails.do?keyVal=T73FO4JBKM000&activeTab=summary","status":"Unknown","date_received":"2025-12-29","lat":53.797495,"lng":-1.543942},{"id":"Consent, agreement or approval required by condition 23 ( Arboriculture ) to planning application 25/00609/FU","desc":"","addr":"Exchange Court 2 West Way Woodhouse Leeds LS1 4AX","postcode":"LS1 4AX","link":"https://publicaccess.leeds.gov.uk/online-applications/applicationDetails.do?keyVal=T7D06RJBM1U00&activeTab=summary","status":"Unknown","date_received":"2025-12-29","lat":53.798817,"lng":-1.558669},{"id":"Listed Building application for repairs to City Varieties including; re roofing, repairs to roof structure and repair to front elevation","desc":"","addr":"City Varieties Music Hall Swan Street Leeds LS1 6LW","postcode":"LS1 6LW","link":"https://publicaccess.leeds.gov.uk/online-applications/applicationDetails.do?keyVal=T7AURSJBLSQ00&activeTab=summary","status":"Unknown","date_received":"2025-12-29","lat":53.798938,"lng":-1.542848},{"id":"Listed building application for replace service yard gates","desc":"","addr":"O'Neils 40 Boar Lane Leeds LS1 5DA","postcode":"LS1 5DA","link":"https://publicaccess.leeds.gov.uk/online-applications/applicationDetails.do?keyVal=T7AUKDJBLSF00&activeTab=summary","status":"Unknown","date_received":"2025-12-29","lat":53.795768,"lng":-1.54607},{"id":"Replace service yard gates","desc":"","addr":"O'Neils 40 Boar Lane Leeds LS1 5DA","postcode":"LS1 5DA","link":"https://publicaccess.leeds.gov.uk/online-applications/applicationDetails.do?keyVal=T7AUKCJBLSE00&activeTab=summary","status":"Unknown","date_received":"2025-12-29","lat":53.795768,"lng":-1.54607},{"id":"Consent, agreement or approval required by condition 23 (statement of construction practice) of planning application 24/03592/FU","desc":"","addr":"Wellington Plaza 31 Wellington Street Leeds LS1 4DL","postcode":"LS1 4DL","link":"https://publicaccess.leeds.gov.uk/online-applications/applicationDetails.do?keyVal=T741V1JBKU500&activeTab=summary","status":"Unknown","date_received":"2025-12-29","lat":53.796155,"lng":-1.551},{"id":"Listed building application for internal alterations to the basement, ground, first and second floors at 17 and 19 King Edward Street, to form an extension to the adjoining Cut & Craft restaurant (21 & 23 King Edward Street) including removal of existing stud walls and creation of new openings; widen the existing link between the two ground floor areas; existing windows to be retained and renovated; new suspended plasterboard raft to house lighting and mechanical equipment","desc":"","addr":"17 - 19 King Edward Street Leeds LS1 6AX","postcode":"LS1 6AX","link":"https://publicaccess.leeds.gov.uk/online-applications/applicationDetails.do?keyVal=T6KX63JBLU100&activeTab=summary","status":"Unknown","date_received":"2025-12-29","lat":53.797799,"lng":-1.541221},{"id":"Listed Building Application for Fire safety upgrades and improvements throughout the building, including installation of new doors and lift shutters; works to existing ceilings, internal walls, interal roof space, flooring, windows and glazing, doors and lift areas","desc":"","addr":"Town Hall The Headrow Leeds LS1 3AD","postcode":"LS1 3AD","link":"https://publicaccess.leeds.gov.uk/online-applications/applicationDetails.do?keyVal=T6FOI0JBL9800&activeTab=summary","status":"Unknown","date_received":"2025-12-29","lat":53.79998,"lng":-1.549729},{"id":"Listed building application for internal works at ground floor and basement level including removal of and new stud partition walls, doors, utilities, flooring, suspended ceilings and decoration/renovation works","desc":"","addr":"Oxford Place Chapel Oxford Place Leeds LS1 3AX","postcode":"LS1 3AX","link":"https://publicaccess.leeds.gov.uk/online-applications/applicationDetails.do?keyVal=T6FD6CJBKHR00&activeTab=summary","status":"Unknown","date_received":"2025-12-29","lat":53.800279,"lng":-1.550592},{"id":"Consent, agreement or approval required by condition 5 (Method Statement) of Planning Application 25/01111/LI","desc":"","addr":"Leeds Central Library Calverley Street Leeds LS1 3AB","postcode":"LS1 3AB","link":"https://publicaccess.leeds.gov.uk/online-applications/applicationDetails.do?keyVal=T6E27KJB0C000&activeTab=summary","status":"Unknown","date_received":"2025-12-29","lat":53.800227,"lng":-1.548679},{"id":"Erection of condensing units mounted to roof","desc":"","addr":"30 - 32 Victoria Quarter Queen Victoria Street Leeds LS1 6BE","postcode":"LS1 6BE","link":"https://publicaccess.leeds.gov.uk/online-applications/applicationDetails.do?keyVal=T4VTBBJBMJM00&activeTab=summary","status":"Unknown","date_received":"2025-12-29","lat":53.798248,"lng":-1.541049},{"id":"Installation of extractor fan and associated ducting to rear/side","desc":"","addr":"12 - 16 Central Road Leeds LS1 6DE","postcode":"LS1 6DE","link":"https://publicaccess.leeds.gov.uk/online-applications/applicationDetails.do?keyVal=T3GC56JBGSA00&activeTab=summary","status":"Unknown","date_received":"2025-12-29","lat":53.796567,"lng":-1.541128},{"id":"T1 Hornbeam - Full crown reduction by 1.5m","desc":"","addr":"Regent Court Briggate Leeds LS1 6ND","postcode":"LS1 6ND","link":"https://publicaccess.leeds.gov.uk/online-applications/applicationDetails.do?keyVal=T88CR9JBKZ200&activeTab=summary","status":"Unknown","date_received":"2026-01-09","lat":53.795518,"lng":-1.541671},{"id":"Determination for the demolition of buildings at Lisbon Square","desc":"","addr":"Lisbon Square Lisbon Street Leeds LS1 4LY","postcode":"LS1 4LY","link":"https://publicaccess.leeds.gov.uk/online-applications/applicationDetails.do?keyVal=T7PNTZJBI4W00&activeTab=summary","status":"Unknown","date_received":"2026-01-09","lat":53.797914,"lng":-1.557449},{"id":"Listed building application for works to section of existing shopfront including replacement single sliding door and fixed side screens; new handrails to entrance; replace ATM surround and signage; internal alterations including decoration to walls, floors and ceiling; refurbish staff kitchen; replacement of fire door","desc":"","addr":"19 - 20 Commercial Street Leeds LS1 6AL","postcode":"LS1 6AL","link":"https://publicaccess.leeds.gov.uk/online-applications/applicationDetails.do?keyVal=T7I9NCJBMXJ00&activeTab=summary","status":"Unknown","date_received":"2026-01-09","lat":53.797495,"lng":-1.543942},{"id":"Works to section of existing shopfront including replacement single sliding door and fixed side screens; new handrails to entrance; replace ATM surround and signage","desc":"","addr":"19 - 20 Commercial Street Leeds LS1 6AL","postcode":"LS1 6AL","link":"https://publicaccess.leeds.gov.uk/online-applications/applicationDetails.do?keyVal=T7I9PUJBMXQ00&activeTab=summary","status":"Unknown","date_received":"2026-01-09","lat":53.797495,"lng":-1.543942},{"id":"Removal of three existing fascia panels and installation of three new fascia panels and with new illuminated acrylic lettering to one fascia; installation of double sided digital display screen internally installed and new internal hanging notice frames; frosted vinyl to door","desc":"","addr":"19 - 20 Commercial Street Leeds LS1 6AL","postcode":"LS1 6AL","link":"https://publicaccess.leeds.gov.uk/online-applications/applicationDetails.do?keyVal=T7I9PVJBMXR00&activeTab=summary","status":"Unknown","date_received":"2026-01-09","lat":53.797495,"lng":-1.543942},{"id":"Certificate of Proposed Lawful Development for a cladding remediation project","desc":"","addr":"The Basilica King Charles Street Leeds LS1 6AG","postcode":"LS1 6AG","link":"https://publicaccess.leeds.gov.uk/online-applications/applicationDetails.do?keyVal=T7H0FXJBMUB00&activeTab=summary","status":"Unknown","date_received":"2026-01-09","lat":53.798649,"lng":-1.544764}]