[{"id":"Consent, agreement or approval required by condition 19 (Interim Drainage Measures) of Planning Application 21/09266/RM","desc":"","addr":"Former Airedale Mills Moss Bridge Works Town Street Rodley Leeds LS13 1HP","postcode":"LS13 1HP","link":"https://publicaccess.leeds.gov.uk/online-applications/applicationDetails.do?keyVal=T7EUQYJBMHX00&activeTab=summary","status":"Unknown","date_received":"2025-12-29","lat":53.82242,"lng":-1.657936},{"id":"Consent, agreement or approval required by conditions 10 (Submission of Verification Report(s)) of Planning Application 21/09964/DPD","desc":"","addr":"230A Stanningley Road Leeds LS13 3BA","postcode":"LS13 3BA","link":"https://publicaccess.leeds.gov.uk/online-applications/applicationDetails.do?keyVal=T6XVWIJBH7A00&activeTab=summary","status":"Unknown","date_received":"2025-12-29","lat":53.806086,"lng":-1.632543},{"id":"Consent, agreement or approval required by conditions 4 (AMS and Exclusion Zones) and 5 (Ecology Buffer Impact Assessment) to planning application 21/09266/RM","desc":"","addr":"Land At Former Airedale Mills Moss Bridge Works Town Street Rodley Leeds LS13 1HP","postcode":"LS13 1HP","link":"https://publicaccess.leeds.gov.uk/online-applications/applicationDetails.do?keyVal=T6SCGXJBGI400&activeTab=summary","status":"Unknown","date_received":"2025-12-29","lat":53.82242,"lng":-1.657936},{"id":"Consent agreement or approval required by conditions 16 (statement of construction practice) and 17 (confirmation of construction activities) of planning application 21/09266/RM","desc":"","addr":"Former Airedale Mills Moss Bridge Works Town Street Rodley Leeds LS13 1HP","postcode":"LS13 1HP","link":"https://publicaccess.leeds.gov.uk/online-applications/applicationDetails.do?keyVal=T6NE49JBFNW00&activeTab=summary","status":"Unknown","date_received":"2025-12-29","lat":53.82242,"lng":-1.657936},{"id":"Consent agreement or approval required by condition 22 (Phase II Site Investigation) of planning application 21/09266/RM","desc":"","addr":"Former Airedale Mills Moss Bridge Works Town Street Rodley Leeds LS13 1HP","postcode":"LS13 1HP","link":"https://publicaccess.leeds.gov.uk/online-applications/applicationDetails.do?keyVal=T6NE25JBFNR00&activeTab=summary","status":"Unknown","date_received":"2025-12-29","lat":53.82242,"lng":-1.657936},{"id":"Consent, agreement or approval required by condition 20 (drainage scheme) to planning application 21/09266/RM","desc":"","addr":"Former Airedale Mills Moss Bridge Works Town Street Rodley Leeds LS13 1HP","postcode":"LS13 1HP","link":"https://publicaccess.leeds.gov.uk/online-applications/applicationDetails.do?keyVal=T6NE3UJBFNT00&activeTab=summary","status":"Unknown","date_received":"2025-12-29","lat":53.82242,"lng":-1.657936},{"id":"Two storey side extension; porch to front","desc":"","addr":"53 Longfield Drive Rodley Leeds LS13 1JX","postcode":"LS13 1JX","link":"https://publicaccess.leeds.gov.uk/online-applications/applicationDetails.do?keyVal=T6MRXZJBFFR00&activeTab=summary","status":"Unknown","date_received":"2025-12-29","lat":53.820322,"lng":-1.656875},{"id":"Consent, agreement or approval required by conditions 3 (Materials), 9 (Vehicular Access), 12 (Parking Layout), 13 (Electric Vehicle Charging Points) and 14 (Cycle/Motorcycle Parking and Facilities) of Planning Application 21/09266/RM","desc":"","addr":"Former Airedale Mills Moss Bridge Works Town Street Rodley Leeds LS13 1HP","postcode":"LS13 1HP","link":"https://publicaccess.leeds.gov.uk/online-applications/applicationDetails.do?keyVal=T6FZ5CJBLAX00&activeTab=summary","status":"Unknown","date_received":"2025-12-29","lat":53.82242,"lng":-1.657936},{"id":"Certificate of Proposed Lawful Development for use as small group children home","desc":"","addr":"Uplands Beecroft Mount Bramley Leeds LS13 3EU","postcode":"LS13 3EU","link":"https://publicaccess.leeds.gov.uk/online-applications/applicationDetails.do?keyVal=T68KLNJBH1G00&activeTab=summary","status":"Unknown","date_received":"2025-12-29","lat":53.811334,"lng":-1.644328},{"id":"Variation of condition 2 (approved plans) to previously approved Planning Application 25/02532/FU (Change of use and alterations to existing dwelling house and garage (C3) to form Respite Care Home (C2), including a single storey extension to form a new link corridor between the house and garage, access ramp with hand rail to rear and doors and porch removed and new windows installed to front) for changes to proposed plans and alterations including to new and amended fenestration, garage roof, first floor bay windows, and a new ramp and patio to front/side","desc":"","addr":"9 Green Hill Drive Bramley Leeds LS13 4JZ","postcode":"LS13 4JZ","link":"https://publicaccess.leeds.gov.uk/online-applications/applicationDetails.do?keyVal=T5Z028JBMP300&activeTab=summary","status":"Unknown","date_received":"2025-12-29","lat":53.802128,"lng":-1.61724},{"id":"Conversion of existing office building into 13 self contained flats (C3); demolition of link block; new ramps and steps; amendments to parking layout; erection of cycle storage and bin store; associated refurbishments and alterations to fenestration, roof lights and roof mounted PV panels; associated hard and soft landscaping","desc":"","addr":"Hough Lane Centre Hough Lane Bramley Leeds LS13 3RD","postcode":"LS13 3RD","link":"https://publicaccess.leeds.gov.uk/online-applications/applicationDetails.do?keyVal=T45SWCJBFX900&activeTab=summary","status":"Unknown","date_received":"2025-12-29","lat":53.810136,"lng":-1.63152},{"id":"Certificate of Proposed Lawful Development for a detached garage to the side","desc":"","addr":"1 Summerfield Avenue Bramley Leeds LS13 1AT","postcode":"LS13 1AT","link":"https://publicaccess.leeds.gov.uk/online-applications/applicationDetails.do?keyVal=T5NL25JBKT400&activeTab=summary","status":"Unknown","date_received":"2025-12-29","lat":53.814973,"lng":-1.647092}]