[{"id":"Single storey side and rear extension and raised decking to rear - NON MATERIAL AMENDMENT TO 17/00946/FU - Approval of the extension of the roof by 1.00M to the provide shelter from the elements to the front landing.","desc":"","addr":"22 Wigton Chase Alwoodley Leeds LS17 8SG","postcode":"LS17 8SG","link":"https://publicaccess.leeds.gov.uk/online-applications/applicationDetails.do?keyVal=T7Q9RAJBIEF00&activeTab=summary","status":"Unknown","date_received":"2025-12-29","lat":53.859624,"lng":-1.510578},{"id":"Single storey rear extension","desc":"","addr":"24 The Drive Alwoodley Leeds LS17 7QA","postcode":"LS17 7QA","link":"https://publicaccess.leeds.gov.uk/online-applications/applicationDetails.do?keyVal=T7DBKFJBM5300&activeTab=summary","status":"Unknown","date_received":"2025-12-29","lat":53.861373,"lng":-1.560977},{"id":"Two storey front extension; new first floor front window; alterations to existing ground floor doors and window","desc":"","addr":"20 Park Lane Mews Shadwell Leeds LS17 8SN","postcode":"LS17 8SN","link":"https://publicaccess.leeds.gov.uk/online-applications/applicationDetails.do?keyVal=T7AUGEJBLSA00&activeTab=summary","status":"Unknown","date_received":"2025-12-29","lat":53.855173,"lng":-1.501387},{"id":"Certificate of Proposed Lawful Development for dormer windows to the rear and sides; rooflights to sides, rear and front","desc":"","addr":"7 Southfield Drive Moor Allerton Leeds LS17 6RP","postcode":"LS17 6RP","link":"https://publicaccess.leeds.gov.uk/online-applications/applicationDetails.do?keyVal=T75QY2JBL4J00&activeTab=summary","status":"Unknown","date_received":"2025-12-29","lat":53.844933,"lng":-1.525143},{"id":"T1 Lime -No height reduction or crowning is required. Lateral reduction will be pruning of saplings and low-lying branches that impede a road access, there will be no significant at height reduction, also tidy up at the base.","desc":"","addr":"To The Front Of 396 Harrogate Road Moortown Leeds LS17 6PY","postcode":"LS17 6PY","link":"https://publicaccess.leeds.gov.uk/online-applications/applicationDetails.do?keyVal=T73WNQJBKSX00&activeTab=summary","status":"Unknown","date_received":"2025-12-29","lat":53.843554,"lng":-1.533335},{"id":"Consent, agreement or approval required by conditions 3 (Materials), 4 (Window & Door Details), 8 (Importing Soil) and 9 (Foul and Surface Water Drainage) of Planning Application 23/07476/FU","desc":"","addr":"Alban Villa Bridle Path Road Shadwell Leeds LS17 9ND","postcode":"LS17 9ND","link":"https://publicaccess.leeds.gov.uk/online-applications/applicationDetails.do?keyVal=T70CQ2JBK8800&activeTab=summary","status":"Unknown","date_received":"2025-12-29","lat":53.85906,"lng":-1.481272},{"id":"T1 Small Conifer: Fell.","desc":"","addr":"The Gables Woodacre Crescent Bardsey Leeds LS17 9DQ","postcode":"LS17 9DQ","link":"https://publicaccess.leeds.gov.uk/online-applications/applicationDetails.do?keyVal=T7EUQKJBMHV00&activeTab=summary","status":"Unknown","date_received":"2025-12-29","lat":53.884626,"lng":-1.447882},{"id":"T1 Rowan, T3 Maple: Reduce by 1m and in height and laterally, 10% crown thin. T2 Cherry: Reduce by 1m and in height and laterally","desc":"","addr":"Silsden Cottage Harrogate Road Harewood Leeds LS17 9LH","postcode":"LS17 9LH","link":"https://publicaccess.leeds.gov.uk/online-applications/applicationDetails.do?keyVal=T7EUZUJB14E00&activeTab=summary","status":"Unknown","date_received":"2025-12-29","lat":53.902107,"lng":-1.512168},{"id":"Single storey rear extension with raised patio area with steps","desc":"","addr":"35 Primley Park Avenue Alwoodley Leeds LS17 7HX","postcode":"LS17 7HX","link":"https://publicaccess.leeds.gov.uk/online-applications/applicationDetails.do?keyVal=T73FOLJBKM200&activeTab=summary","status":"Unknown","date_received":"2025-12-29","lat":53.852843,"lng":-1.536896},{"id":"Certificate of Proposed Lawful Development for an extension to the gable, dormer window to the rear and rooflight to the front","desc":"","addr":"22 Primley Park Lane Alwoodley Leeds LS17 7LS","postcode":"LS17 7LS","link":"https://publicaccess.leeds.gov.uk/online-applications/applicationDetails.do?keyVal=T71W10JBKGM00&activeTab=summary","status":"Unknown","date_received":"2025-12-29","lat":53.854818,"lng":-1.536281},{"id":"Conversion of garage to habitable room; demolition of conservatory","desc":"","addr":"10 Grange Close Bardsey Leeds LS17 9AX","postcode":"LS17 9AX","link":"https://publicaccess.leeds.gov.uk/online-applications/applicationDetails.do?keyVal=T701EJJBK5X00&activeTab=summary","status":"Unknown","date_received":"2025-12-29","lat":53.887567,"lng":-1.44232},{"id":"Two dormer windows to side","desc":"","addr":"45 Broomhill Drive Moortown Leeds LS17 6JW","postcode":"LS17 6JW","link":"https://publicaccess.leeds.gov.uk/online-applications/applicationDetails.do?keyVal=T6YDIEJB2O200&activeTab=summary","status":"Unknown","date_received":"2025-12-29","lat":53.840565,"lng":-1.539143},{"id":"Certificate of Proposed Lawful Development for a single storey rear extension and bricking up of side door opening","desc":"","addr":"1 Church Crescent Moortown Leeds LS17 6DQ","postcode":"LS17 6DQ","link":"https://publicaccess.leeds.gov.uk/online-applications/applicationDetails.do?keyVal=T6XVTNJBH6Y00&activeTab=summary","status":"Unknown","date_received":"2025-12-29","lat":53.847787,"lng":-1.537833},{"id":"4.40m single storey rear extension, 3.95m to ridge height and 2.60m to eaves","desc":"","addr":"197 Wetherby Road Roundhay Leeds LS17 8ND","postcode":"LS17 8ND","link":"https://publicaccess.leeds.gov.uk/online-applications/applicationDetails.do?keyVal=T6FJNUJB0C000&activeTab=summary","status":"Unknown","date_received":"2025-12-29","lat":53.838957,"lng":-1.471475},{"id":"T1 Ash: Fell, The tree is heavily leaning towards the middle of the garden and is a safety issue. The tree is an ash and has become very susceptible to ash die back.","desc":"","addr":"The Mount Cleavesty Lane East Keswick Leeds LS17 9EZ","postcode":"LS17 9EZ","link":"https://publicaccess.leeds.gov.uk/online-applications/applicationDetails.do?keyVal=T6ZR1WJBIJD00&activeTab=summary","status":"Unknown","date_received":"2025-12-29","lat":53.897589,"lng":-1.45427},{"id":"I'm attaching a full arb con report from Barnes Associates. Removal of T10, T27, T31, ST32, T33, T34","desc":"","addr":"The Poultry Farm Bay Horse Lane Shadwell Leeds LS17 8SL","postcode":"LS17 8SL","link":"https://publicaccess.leeds.gov.uk/online-applications/applicationDetails.do?keyVal=T6ZVT8JBK4J00&activeTab=summary","status":"Unknown","date_received":"2025-12-29","lat":53.858543,"lng":-1.465755},{"id":"Demolition of garage; Part two and single storey side and rear extension to form annexe and car port NON MATERIAL AMENDMENT to 24/06574/FU amending stone panels to render to match other elements of the property","desc":"","addr":"Eastside 192 Alwoodley Lane Alwoodley Leeds LS17 7PF","postcode":"LS17 7PF","link":"https://publicaccess.leeds.gov.uk/online-applications/applicationDetails.do?keyVal=T6XVWZJBH7C00&activeTab=summary","status":"Unknown","date_received":"2025-12-29","lat":53.86225,"lng":-1.547739},{"id":"Single storey rear extension, with pitched roof and rooflights","desc":"","addr":"12 Moss Valley Alwoodley Leeds LS17 7NS","postcode":"LS17 7NS","link":"https://publicaccess.leeds.gov.uk/online-applications/applicationDetails.do?keyVal=T6Y6Q0JBH9B00&activeTab=summary","status":"Unknown","date_received":"2025-12-29","lat":53.856952,"lng":-1.556265},{"id":"Consent, agreement or approval required by condition 13 (Protection of Trees/Hedges/Bushes) of Planning Application 24/01253/FU","desc":"","addr":"Queenshill Drive / Queenshill Avenue Leeds LS17 6BE","postcode":"LS17 6BE","link":"https://publicaccess.leeds.gov.uk/online-applications/applicationDetails.do?keyVal=T6SXWFJBGOM00&activeTab=summary","status":"Unknown","date_received":"2025-12-29","lat":53.845824,"lng":-1.544025},{"id":"Single storey front extension; single storey rear extension; conversion of existing detached garage to form an annexe for ancillary use to the main dwelling; new cladding to dormer windows; new terrace to rear","desc":"","addr":"Braeside Brandon Court Shadwell Leeds LS17 8AT","postcode":"LS17 8AT","link":"https://publicaccess.leeds.gov.uk/online-applications/applicationDetails.do?keyVal=T6DIIQJBK7100&activeTab=summary","status":"Unknown","date_received":"2025-12-29","lat":53.857295,"lng":-1.499583},{"id":"Demolition of detached garage and construction of a single storey side and rear extension; hip to gable roof extension incorporating a dormer to rear; rooflight to the front; extension of chimney height","desc":"","addr":"2 Primley Park Mount Alwoodley Leeds LS17 7JJ","postcode":"LS17 7JJ","link":"https://publicaccess.leeds.gov.uk/online-applications/applicationDetails.do?keyVal=T6E37PJB0C000&activeTab=summary","status":"Unknown","date_received":"2025-12-29","lat":53.853748,"lng":-1.533891},{"id":"Consent, agreement or approval required by conditions 5 (vehicular access), 6 (cycle parking) and 8 (EV charging) to planning application 24/07160/FU","desc":"","addr":"Barn South Of Blackmoor Lane Bardsey Leeds LS17 9DY","postcode":"LS17 9DY","link":"https://publicaccess.leeds.gov.uk/online-applications/applicationDetails.do?keyVal=T69T5LJBJJA00&activeTab=summary","status":"Unknown","date_received":"2025-12-29","lat":53.878372,"lng":-1.460027},{"id":"Certificate of Proposed Lawful Development for a single storey extension to the side","desc":"","addr":"129 Birchwood Hill Shadwell Leeds LS17 8NT","postcode":"LS17 8NT","link":"https://publicaccess.leeds.gov.uk/online-applications/applicationDetails.do?keyVal=T62EWRJBG2F00&activeTab=summary","status":"Unknown","date_received":"2025-12-29","lat":53.851297,"lng":-1.514126},{"id":"New driveway entrance including replacement wall and new gates; garden works and enlarged porch to front with steps","desc":"","addr":"129 Main Street Shadwell Leeds LS17 8JA","postcode":"LS17 8JA","link":"https://publicaccess.leeds.gov.uk/online-applications/applicationDetails.do?keyVal=T5PWAMJBLA700&activeTab=summary","status":"Unknown","date_received":"2025-12-29","lat":53.853735,"lng":-1.47813},{"id":"Single storey rear extension; blocking up side window at ground floor level","desc":"","addr":"3 Highthorne Mount Shadwell Leeds LS17 8PB","postcode":"LS17 8PB","link":"https://publicaccess.leeds.gov.uk/online-applications/applicationDetails.do?keyVal=T5M0TVJB2O200&activeTab=summary","status":"Unknown","date_received":"2025-12-29","lat":53.851106,"lng":-1.515618},{"id":"T1 Conifer: Remove to ground level T2 Ash: Crown lift by 1m to clear fruit trees. T3 Beech: Reduction of 1.5m clearance from property.","desc":"","addr":"Winton House Main Street East Keswick Leeds LS17 9EJ","postcode":"LS17 9EJ","link":"https://publicaccess.leeds.gov.uk/online-applications/applicationDetails.do?keyVal=T6L837JBLWB00&activeTab=summary","status":"Unknown","date_received":"2025-12-29","lat":53.893939,"lng":-1.452157},{"id":"Certificate of Proposed Lawful Development for a single storey rear extension","desc":"","addr":"6 Linton Drive Alwoodley Leeds LS17 8QN","postcode":"LS17 8QN","link":"https://publicaccess.leeds.gov.uk/online-applications/applicationDetails.do?keyVal=T6FZ6CJBLB300&activeTab=summary","status":"Unknown","date_received":"2025-12-29","lat":53.854796,"lng":-1.523678},{"id":"Consent, agreement or approval required by condition 6 (Ventilation Details) of Planning Application 25/02037/LI","desc":"","addr":"1 Crofton Terrace Shadwell Leeds LS17 8LD","postcode":"LS17 8LD","link":"https://publicaccess.leeds.gov.uk/online-applications/applicationDetails.do?keyVal=T6FO30JBL8X00&activeTab=summary","status":"Unknown","date_received":"2025-12-29","lat":53.852675,"lng":-1.467973},{"id":"Infill single storey rear extension to lower ground floor with decking area above; new dormer windows to front/rear and roof lights to front","desc":"","addr":"2 Wike Ridge Gardens Alwoodley Leeds LS17 9NJ","postcode":"LS17 9NJ","link":"https://publicaccess.leeds.gov.uk/online-applications/applicationDetails.do?keyVal=T6C9TSJBK4I00&activeTab=summary","status":"Unknown","date_received":"2025-12-29","lat":53.858406,"lng":-1.500832},{"id":"Certificate of Proposed Lawful Development for extension to front driveway with porous material","desc":"","addr":"39 Woodbourne Avenue Moortown Leeds LS17 5PQ","postcode":"LS17 5PQ","link":"https://publicaccess.leeds.gov.uk/online-applications/applicationDetails.do?keyVal=T6BYQEJBK2300&activeTab=summary","status":"Unknown","date_received":"2025-12-29","lat":53.838854,"lng":-1.545317},{"id":"Single storey extension to the side and rear incorporating link with and alterations to existing garage; extension to gable and dormer window to the rear and rooflight to the front; alterations to rear fenestration","desc":"","addr":"2 Primley Park Mount Alwoodley Leeds LS17 7JJ","postcode":"LS17 7JJ","link":"https://publicaccess.leeds.gov.uk/online-applications/applicationDetails.do?keyVal=T6AF3BJB0C000&activeTab=summary","status":"Unknown","date_received":"2025-12-29","lat":53.853748,"lng":-1.533891},{"id":"Single storey front, side and rear extension with external ramp for wheelchair access, to rear; demolition of existing garage; porch to front","desc":"","addr":"62 Stainburn Crescent Moor Allerton Leeds LS17 6NS","postcode":"LS17 6NS","link":"https://publicaccess.leeds.gov.uk/online-applications/applicationDetails.do?keyVal=T62EXCJBG2H00&activeTab=summary","status":"Unknown","date_received":"2025-12-29","lat":53.837715,"lng":-1.532002},{"id":"Listed Building Application for internal and external cabling with the installation of associated equipment","desc":"","addr":"Harewood House Harrogate Road Harewood Leeds LS17 9LG","postcode":"LS17 9LG","link":"https://publicaccess.leeds.gov.uk/online-applications/applicationDetails.do?keyVal=SZ2S0CJBLG700&activeTab=summary","status":"Unknown","date_received":"2025-12-29","lat":53.8969,"lng":-1.527279},{"id":"See attached proposal for works. Removal: Swedish White Beam, Chestnut, Ash, Rowan and Norway Maple. Crown lift: Oak, Swedish White beam, Chestnut, White Beam, Norway Maple.","desc":"","addr":"1 Oakdene Court Alwoodley Leeds LS17 8XS","postcode":"LS17 8XS","link":"https://publicaccess.leeds.gov.uk/online-applications/applicationDetails.do?keyVal=T6BNTQJBJWD00&activeTab=summary","status":"Unknown","date_received":"2025-12-29","lat":53.854331,"lng":-1.510929},{"id":"G1 Sycamore and London Plane: Reduce lateral spread by 1-1.5m overing hanging boundary back to hisotrical pruning points.","desc":"","addr":"18 Kings Mount Moortown Leeds LS17 5NS","postcode":"LS17 5NS","link":"https://publicaccess.leeds.gov.uk/online-applications/applicationDetails.do?keyVal=T6A0NGJB14E00&activeTab=summary","status":"Unknown","date_received":"2025-12-29","lat":53.835263,"lng":-1.541587},{"id":"T1 single multi-stemmed conifer in the rear garden - Crown reduction tree is approximately 20 m high with a current crown spread of about 7/8 m (around 3.5/4 m radius). Carry out a crown reduction to a final height of about 9/10 m, in line with BS 3998:2010 Recommendations for Tree Work: Shorten upper crown branches back to suitable secondary branches so that the final height is around 9/10 m. Reduce the lateral spread all round by about 1/2 m, giving a final spread of roughly 5/6 m. Retain an even, balanced crown; no heavy topping cuts. Avoid cutting into main stems unless needed to keep the tree structurally stable. Remove dead, dying, damaged or rubbing branches as part of the work.","desc":"","addr":"7 Plane Tree Gardens Alwoodley Leeds LS17 8UD","postcode":"LS17 8UD","link":"https://publicaccess.leeds.gov.uk/online-applications/applicationDetails.do?keyVal=T62UX7JBG7W00&activeTab=summary","status":"Unknown","date_received":"2025-12-29","lat":53.852312,"lng":-1.520545},{"id":"Demolition of existing conservatory; First floor side extension; Single storey rear extension; Roof lights to side and alterations to existing roof lights; New flat roof with roof lantern to existing single storey side extension; Addition of window to ground floor side NON MATERIAL AMENDMENT to 24/04304/FU Addition of two windows to the left elevation of the rear single storey extension, alteration to window to rear of first floor side extension","desc":"","addr":"19 Wigton Green Alwoodley Leeds LS17 8QR","postcode":"LS17 8QR","link":"https://publicaccess.leeds.gov.uk/online-applications/applicationDetails.do?keyVal=T617D0JB0C000&activeTab=summary","status":"Unknown","date_received":"2025-12-29","lat":53.860963,"lng":-1.521799},{"id":"Consent, agreement or approval required by condition 4 (garden wall material) of planning application 25/02037/LI","desc":"","addr":"1 Crofton Terrace Shadwell Leeds LS17 8LD","postcode":"LS17 8LD","link":"https://publicaccess.leeds.gov.uk/online-applications/applicationDetails.do?keyVal=T5YOWXJBMJ800&activeTab=summary","status":"Unknown","date_received":"2025-12-29","lat":53.852675,"lng":-1.467973},{"id":"Erection of a single storey side extension with habitable rooms in loftspace and dormer to rear, a single storey side and rear extension, and fenestration alterations to the side and rear.","desc":"","addr":"11 Second Avenue Bardsey Leeds LS17 9BQ","postcode":"LS17 9BQ","link":"https://publicaccess.leeds.gov.uk/online-applications/applicationDetails.do?keyVal=T5XGH3JBMGY00&activeTab=summary","status":"Unknown","date_received":"2025-12-29","lat":53.894671,"lng":-1.435378},{"id":"Cetificate of Proposed Lawful Development for a roof extension to the gable and dormer window to the rear; porch to the front","desc":"","addr":"27 Broomhill Drive Moortown Leeds LS17 6JW","postcode":"LS17 6JW","link":"https://publicaccess.leeds.gov.uk/online-applications/applicationDetails.do?keyVal=T5VP0OJB30600&activeTab=summary","status":"Unknown","date_received":"2025-12-29","lat":53.840565,"lng":-1.539143},{"id":"Listed building application for the demolition of existing Dutch barns and lean two former cow shed; conversion of agricultural buildings to form four dwellings with associated parking, landscaping, engineering and infrastructure works","desc":"","addr":"Manor Farm Main Street Shadwell Leeds LS17 8JB","postcode":"LS17 8JB","link":"https://publicaccess.leeds.gov.uk/online-applications/applicationDetails.do?keyVal=T5UZVZJBLZZ00&activeTab=summary","status":"Unknown","date_received":"2025-12-29","lat":53.852872,"lng":-1.478019},{"id":"Demolition of existing dutch barns and lean two former cow shed; conversion of agricultural buildings to form four dwellings with associated parking, landscaping, engineering and infrastructure works","desc":"","addr":"Manor Farm Main Street Shadwell Leeds LS17 8JB","postcode":"LS17 8JB","link":"https://publicaccess.leeds.gov.uk/online-applications/applicationDetails.do?keyVal=T5UZVWJBLZY00&activeTab=summary","status":"Unknown","date_received":"2025-12-29","lat":53.852872,"lng":-1.478019},{"id":"T1 Oak - Crown lift to 6metres and remove deadwood to allow apple tree orchard to grow underneath Aak tree. T2 Maple - Remove overhanging branches by 2metres length of overhanging branches affecting Acer tree growing underneath canopy. T3 Horse Chestnut multi stemmed tree - To remove branches overhanging Acer tree and mature epicormic growth, to allow healthy growth of Acer tree growing underneath canopy","desc":"","addr":"Rose Cottage Moor Lane East Keswick Leeds LS17 9ES","postcode":"LS17 9ES","link":"https://publicaccess.leeds.gov.uk/online-applications/applicationDetails.do?keyVal=T88CMIJBKYV00&activeTab=summary","status":"Unknown","date_received":"2026-01-09","lat":53.894174,"lng":-1.456399},{"id":"Single storey infill extension to rear lower ground level patio and associated works to form extended patio; associated alterations to form replacement wall to existing terrace","desc":"","addr":"Kings Bridge 76 The Fairway Alwoodley Leeds LS17 7PD","postcode":"LS17 7PD","link":"https://publicaccess.leeds.gov.uk/online-applications/applicationDetails.do?keyVal=T7PZ22JBIC600&activeTab=summary","status":"Unknown","date_received":"2026-01-09","lat":53.861184,"lng":-1.546428},{"id":"Erection of building for use in Class F1 with associated car parking, hard and soft landscaping and boundary treatments","desc":"","addr":"Land To The East Of Wetherby Road LS17 8LY","postcode":"LS17 8LY","link":"https://publicaccess.leeds.gov.uk/online-applications/applicationDetails.do?keyVal=T7IV8PJBFGK00&activeTab=summary","status":"Unknown","date_received":"2026-01-09","lat":53.844614,"lng":-1.466145},{"id":"Demolition of garage; construction of two storey side extension; new first floor terrace with balustrading to rear","desc":"","addr":"1 Shadwell Park Grove Shadwell Leeds LS17 8TU","postcode":"LS17 8TU","link":"https://publicaccess.leeds.gov.uk/online-applications/applicationDetails.do?keyVal=T7IPLQJBN4N00&activeTab=summary","status":"Unknown","date_received":"2026-01-09","lat":53.853626,"lng":-1.496753},{"id":"Installation of dropped kerb to form additional vehicle access; associated new hard standing to form drive and reduction of existing boundary hedge","desc":"","addr":"41 Nunroyd Road Leeds LS17 6PH","postcode":"LS17 6PH","link":"https://publicaccess.leeds.gov.uk/online-applications/applicationDetails.do?keyVal=T722O5JB2QX00&activeTab=summary","status":"Unknown","date_received":"2026-01-09","lat":53.839927,"lng":-1.532144},{"id":"Demolition of garage; part two and single storey side/rear extension and associated alteration to a first floor window; erection of outbuilding to rear and gate to side; associated landscaping forming alterations to patio and stairs at rear","desc":"","addr":"48 Stainburn Crescent Moor Allerton Leeds LS17 6NS","postcode":"LS17 6NS","link":"https://publicaccess.leeds.gov.uk/online-applications/applicationDetails.do?keyVal=T6NBDMJB2O200&activeTab=summary","status":"Unknown","date_received":"2026-01-09","lat":53.837715,"lng":-1.532002},{"id":"Retrospective application for a balustrade to first floor roof.","desc":"","addr":"1 Wike Lane Bardsey Leeds LS17 9EB","postcode":"LS17 9EB","link":"https://publicaccess.leeds.gov.uk/online-applications/applicationDetails.do?keyVal=T6MRTQJBN5B00&activeTab=summary","status":"Unknown","date_received":"2026-01-09","lat":53.882399,"lng":-1.466288},{"id":"Installation of dropped kerb to front; addition of hardstanding to front to form extension to driveway and alterations to stairs and retaining walls","desc":"","addr":"3 The Lane Alwoodley Leeds LS17 7BR","postcode":"LS17 7BR","link":"https://publicaccess.leeds.gov.uk/online-applications/applicationDetails.do?keyVal=T615UZJBFZ200&activeTab=summary","status":"Unknown","date_received":"2026-01-09","lat":53.859318,"lng":-1.561987},{"id":"Certificate of Proposed Lawful Development for a dormer window to the rear","desc":"","addr":"8 The Mount Alwoodley Leeds LS17 7QU","postcode":"LS17 7QU","link":"https://publicaccess.leeds.gov.uk/online-applications/applicationDetails.do?keyVal=T55OKPJBGAN00&activeTab=summary","status":"Unknown","date_received":"2026-01-09","lat":53.860052,"lng":-1.55129},{"id":"Demolition of detached garage to rear, single storey rear extension","desc":"","addr":"5 Carr Manor Crescent Moortown Leeds LS17 5DD","postcode":"LS17 5DD","link":"https://publicaccess.leeds.gov.uk/online-applications/applicationDetails.do?keyVal=T8T5SBJBJB700&activeTab=summary","status":"Unknown","date_received":"2026-01-16","lat":53.836739,"lng":-1.551737},{"id":"Oak: Draw back limbs by 1.5 meters to make a clearance from house No 4 and 2.","desc":"","addr":"4 St Andrews Croft Alwoodley Leeds LS17 7TP","postcode":"LS17 7TP","link":"https://publicaccess.leeds.gov.uk/online-applications/applicationDetails.do?keyVal=T8QP9RJBHKH00&activeTab=summary","status":"Unknown","date_received":"2026-01-16","lat":53.855494,"lng":-1.546231},{"id":"Consent agreement or approval of condition 2 (Plans to be approved) of Planning Application 23/06969/FU Plan Type Plan Reference Block Plan/Layout Plan QD2426-100-011 Planning Layout Rev A Mixed/Combined Plans QD2426-100-000 House Type Planning Drawing Streetscape QD2426-100-800 Visual Other Materials Schedule S73 Proposed Engineering Drawing(s) QD2426-QD-XX-WF-DR-C-04-01-P01 EXTERNAL WORKS QD2426-QD-XX-WF-DR-C-04-02-P02 PRIVATE DRAINAGE QD2426-QD-XX-WF-DR-C-06-01-P01 CONSTRUCTION DETAILS Proposed Engineering Calculations QD2426 ENG CALCS 25.12.16 Landscape Scheme R/2715/1E (submitted separately)","desc":"","addr":"Land Between Shadwell Lane And Roundhay Park Lane Shadwell Leeds LS17 8AS","postcode":"LS17 8AS","link":"https://publicaccess.leeds.gov.uk/online-applications/applicationDetails.do?keyVal=T8LLMBJBGLQ00&activeTab=summary","status":"Unknown","date_received":"2026-01-16","lat":53.853915,"lng":-1.501478},{"id":"Hip to gable end loft extension with roof lights to front, dormer window to rear; rendering and removal of chimney","desc":"","addr":"8 Kings Mount Moortown Leeds LS17 5NS","postcode":"LS17 5NS","link":"https://publicaccess.leeds.gov.uk/online-applications/applicationDetails.do?keyVal=T8DQJWJBLJ300&activeTab=summary","status":"Unknown","date_received":"2026-01-16","lat":53.835263,"lng":-1.541587},{"id":"Change of use of agricultural building to Storage or Distribution (Class B8) under a flexible commercial use of Schedule 2 Part 3 Class R of the Town and Country Planning General Permitted Development (England) Order 2015 (as amended)","desc":"","addr":"The Barn At The Beeches Backstone Gill Lane Wike Leeds LS17 9JS","postcode":"LS17 9JS","link":"https://publicaccess.leeds.gov.uk/online-applications/applicationDetails.do?keyVal=T88QZJJB2QV00&activeTab=summary","status":"Unknown","date_received":"2026-01-16","lat":53.873607,"lng":-1.486476},{"id":"Convert single dwelling into three apartments; alterations including part single storey, part two storey front extension; new pitched roof with dormer windows to front and rear; re-cladding of brick to front and render to sides; part single storey, part two storey rear extension; new entrance door with canopy to front and sides; alterations to drive way with new wall and gates to front","desc":"","addr":"372 Alwoodley Lane Alwoodley Leeds LS17 7DN","postcode":"LS17 7DN","link":"https://publicaccess.leeds.gov.uk/online-applications/applicationDetails.do?keyVal=T88C57JBKXV00&activeTab=summary","status":"Unknown","date_received":"2026-01-16","lat":53.861669,"lng":-1.529941},{"id":"Retrospective application for creation of first floor and rendering to entire dwelling","desc":"","addr":"11 The View Alwoodley Leeds LS17 7NA","postcode":"LS17 7NA","link":"https://publicaccess.leeds.gov.uk/online-applications/applicationDetails.do?keyVal=T7NT03JBG6B00&activeTab=summary","status":"Unknown","date_received":"2026-01-16","lat":53.860522,"lng":-1.56164},{"id":"Single storey front extension with steps; single storey rear extension","desc":"","addr":"Waveney Lodge Woodacre Crescent Bardsey Leeds LS17 9DQ","postcode":"LS17 9DQ","link":"https://publicaccess.leeds.gov.uk/online-applications/applicationDetails.do?keyVal=T6ZQX7JBIJB00&activeTab=summary","status":"Unknown","date_received":"2026-01-16","lat":53.884626,"lng":-1.447882},{"id":"Demolition of existing community hall; erection of new community centre with associated parking, alterations to existing access, hard and soft landscaping works","desc":"","addr":"Holywell Lane Social Club Holywell Lane Shadwell Leeds LS17 8HA","postcode":"LS17 8HA","link":"https://publicaccess.leeds.gov.uk/online-applications/applicationDetails.do?keyVal=T42417JBLXQ00&activeTab=summary","status":"Unknown","date_received":"2026-01-16","lat":53.855744,"lng":-1.485372}]