[{"id":"Recladding and facade remediation","desc":"","addr":"The Tannery Cavendish Street Burley Leeds LS3 1AG","postcode":"LS3 1AG","link":"https://publicaccess.leeds.gov.uk/online-applications/applicationDetails.do?keyVal=T6FD3HJBKHN00&activeTab=summary","status":"Unknown","date_received":"2025-12-29","lat":53.800119,"lng":-1.56318},{"id":"T1 Hornbeam - Remove tree. Lifting footpath, blocking severe amount of light into several flats. T2 London Plane - Reduce/re-pollard to previous reduction points. Replace Hornbeam with x2 Silver Birch, standards at the front of the property where there is more greenspace available.","desc":"","addr":"Rosebank House 217 Belle Vue Road Woodhouse Leeds LS3 1HG","postcode":"LS3 1HG","link":"https://publicaccess.leeds.gov.uk/online-applications/applicationDetails.do?keyVal=T88CRHJBKZ500&activeTab=summary","status":"Unknown","date_received":"2026-01-09","lat":53.806426,"lng":-1.564769},{"id":"Variation of condition 5 (opening hours) to previously approved planning application 18/00999/FU (Change of use from signage shop to hot food takeaway) to extend allowed opening time from 23:30hrs to 02:00hrs","desc":"","addr":"Ground Floor 106 Burley Road Burley Leeds LS3 1JP","postcode":"LS3 1JP","link":"https://publicaccess.leeds.gov.uk/online-applications/applicationDetails.do?keyVal=T7NT4WJBG6L00&activeTab=summary","status":"Unknown","date_received":"2026-01-09","lat":53.804444,"lng":-1.568525},{"id":"Variation of condition 4 (opening hours) to previously approved planning application 26/509/03/FU (Change of use of shop and showroom to restaurant) to allow opening from 11:00hrs to 02:00hrs Monday to Sunday inclusive","desc":"","addr":"84 - 90 Burley Road Burley Leeds LS3 1JP","postcode":"LS3 1JP","link":"https://publicaccess.leeds.gov.uk/online-applications/applicationDetails.do?keyVal=T7NT5NJBG6N00&activeTab=summary","status":"Unknown","date_received":"2026-01-09","lat":53.804444,"lng":-1.568525},{"id":"Certificate of Existing Lawful Development for Use as a house in multiple occupation","desc":"","addr":"1 Claremont Grove Woodhouse Leeds LS3 1AX","postcode":"LS3 1AX","link":"https://publicaccess.leeds.gov.uk/online-applications/applicationDetails.do?keyVal=T8ECRFJBLOR00&activeTab=summary","status":"Unknown","date_received":"2026-01-16","lat":53.80188,"lng":-1.558029},{"id":"Consent, agreement or approval required by condition 26 (bin stores) to planning application 22/02505/FU","desc":"","addr":"Former Arla Foods Depot 87 - 91 Kirkstall Road Burley Leeds LS3 1HS","postcode":"LS3 1HS","link":"https://publicaccess.leeds.gov.uk/online-applications/applicationDetails.do?keyVal=T8Y9ENJBKBG00&activeTab=summary","status":"Unknown","date_received":"2026-01-23","lat":53.801491,"lng":-1.569755}]