[{"id":"Certificate of Proposed Lawful Development for an extension to the gable, dormer window to the rear and rooflights to the front","desc":"","addr":"53 Montagu Crescent Roundhay Leeds LS8 2RD","postcode":"LS8 2RD","link":"https://publicaccess.leeds.gov.uk/online-applications/applicationDetails.do?keyVal=T7AUGPJBLSC00&activeTab=summary","status":"Unknown","date_received":"2025-12-29","lat":53.821835,"lng":-1.499032},{"id":"Certificate of Proposed Lawful Development for an extension to the gable, dormer window to the rear and rooflight to front","desc":"","addr":"4 Chelwood Crescent Moor Allerton Leeds LS8 2AQ","postcode":"LS8 2AQ","link":"https://publicaccess.leeds.gov.uk/online-applications/applicationDetails.do?keyVal=T75XUCJB2QV00&activeTab=summary","status":"Unknown","date_received":"2025-12-29","lat":53.845674,"lng":-1.519374},{"id":"Demolition of garage to the rear; single storey side and rear extension","desc":"","addr":"1 James Avenue Gledhow Leeds LS8 1LH","postcode":"LS8 1LH","link":"https://publicaccess.leeds.gov.uk/online-applications/applicationDetails.do?keyVal=T630HPJBG9800&activeTab=summary","status":"Unknown","date_received":"2025-12-29","lat":53.835117,"lng":-1.518157},{"id":"Second floor rear extension with solar panels to roof; single storey extension to side; new roofs, steps and openings to single storey side and rear extension; replacement roof coverings and replacement window to existing garage; alterations to openings of existing two storey rear projection - NON MATERIAL AMENDMENT TO 22/06424/FU - Approved rear outrigger: i) Replace mock tudor timber effect facade with coursed brickwork at 2nd floor level, including swapping 3no. casement windows for 1no. sliding sash window within stone header and sill; ii).Replace 3no. casement windows at 1st floor level, for 2no. sliding sash windows to match existing with stone headers, sill and mullion; and iii). Relocate approved velux roof light from right hand side, to left hand side of chimney on north facing roof plane.","desc":"","addr":"37 Gledhow Wood Grove Gledhow Leeds LS8 1NZ","postcode":"LS8 1NZ","link":"https://publicaccess.leeds.gov.uk/online-applications/applicationDetails.do?keyVal=T7AUM0JBLSK00&activeTab=summary","status":"Unknown","date_received":"2025-12-29","lat":53.830942,"lng":-1.519117},{"id":"New goods entrance and roller shutter door to rear elevation","desc":"","addr":"Roseville House Roseville Road Sheepscar Leeds LS8 5DT","postcode":"LS8 5DT","link":"https://publicaccess.leeds.gov.uk/online-applications/applicationDetails.do?keyVal=T75AHXJBKXL00&activeTab=summary","status":"Unknown","date_received":"2025-12-29","lat":53.808188,"lng":-1.527106},{"id":"Single storey side and rear extension with roolights and feature cladding; demolition of chimney to side and existing rear extension; new paving to rear","desc":"","addr":"41 Davies Avenue Gledhow Leeds LS8 1JZ","postcode":"LS8 1JZ","link":"https://publicaccess.leeds.gov.uk/online-applications/applicationDetails.do?keyVal=T73QS4JBKR900&activeTab=summary","status":"Unknown","date_received":"2025-12-29","lat":53.833364,"lng":-1.513604},{"id":"Consent, agreement or approval required by condition 5 (_) and 6 (_) of Planning Application 25/03743/FU","desc":"","addr":"41 West Park Avenue Roundhay Leeds LS8 2EB","postcode":"LS8 2EB","link":"https://publicaccess.leeds.gov.uk/online-applications/applicationDetails.do?keyVal=T73QU3JBKRD00&activeTab=summary","status":"Unknown","date_received":"2025-12-29","lat":53.847022,"lng":-1.503779},{"id":"Erection of part two storey part single side and rear extension, a fenestration alteration to rear, and extension of hardstanding to front.","desc":"","addr":"45 Gipton Wood Road Gipton Leeds LS8 2RZ","postcode":"LS8 2RZ","link":"https://publicaccess.leeds.gov.uk/online-applications/applicationDetails.do?keyVal=T71W21JBKGQ00&activeTab=summary","status":"Unknown","date_received":"2025-12-29","lat":53.820189,"lng":-1.50294},{"id":"Single storey, side and rear extension; Hip to gable loft conversion incorporating rooflights to the front and dormer window to the rear; Alterations to first floor side windows; Alterations to existing porch to the front including new door. Raised patio to the rear.","desc":"","addr":"53 Kingswood Gardens Moor Allerton Leeds LS8 2BH","postcode":"LS8 2BH","link":"https://publicaccess.leeds.gov.uk/online-applications/applicationDetails.do?keyVal=T70CW7JBK8I00&activeTab=summary","status":"Unknown","date_received":"2025-12-29","lat":53.848193,"lng":-1.515515},{"id":"T1 Beech - There will be no height reduction, we intend to reduce part of the eastern aspect by 1.5m in total which will create a clearance of 1m from the telegraph wires. The rest of the tree will be left as it is. I believe it will cause the telegraph wires to fall down if left as it is and we experience high winds.","desc":"","addr":"15 Lidgett Lane Gledhow Leeds LS8 1PQ","postcode":"LS8 1PQ","link":"https://publicaccess.leeds.gov.uk/online-applications/applicationDetails.do?keyVal=T6FDDQJBKI500&activeTab=summary","status":"Unknown","date_received":"2025-12-29","lat":53.830123,"lng":-1.521116},{"id":"Single storey side extension; demolition of existing porch","desc":"","addr":"3 Talbot Road Moor Allerton Leeds LS8 1AG","postcode":"LS8 1AG","link":"https://publicaccess.leeds.gov.uk/online-applications/applicationDetails.do?keyVal=T5M6YFJBKNV00&activeTab=summary","status":"Unknown","date_received":"2025-12-29","lat":53.843045,"lng":-1.518188},{"id":"Erection of extract plant and ducting to existing flat roof to rear","desc":"","addr":"Leeds Montessori School And Day Nursery Wetherby Road Roundhay Leeds LS8 2LE","postcode":"LS8 2LE","link":"https://publicaccess.leeds.gov.uk/online-applications/applicationDetails.do?keyVal=T5AMGRJBJ0G00&activeTab=summary","status":"Unknown","date_received":"2025-12-29","lat":53.829739,"lng":-1.489169},{"id":"Listed building consent for external works associated with addition of roof mounted extract plant and refurbishment works including to windows; internal works including associated ducting, decoration and floor finishes, plumbing, lighting","desc":"","addr":"Leeds Montessori School And Day Nursery Wetherby Road Roundhay Leeds LS8 2LE","postcode":"LS8 2LE","link":"https://publicaccess.leeds.gov.uk/online-applications/applicationDetails.do?keyVal=T56X88JBICL00&activeTab=summary","status":"Unknown","date_received":"2025-12-29","lat":53.829739,"lng":-1.489169},{"id":"T1 Birch : Remove (cojoined stem, v shaped union, included bark). T2, T3 Lime : Crown lift to 5m on house side T4 Cherry T5 Birch: Remove. LCC Officer note: T2, T3, T4 and T5 LCC trees. Please see Officer Report and request permission from Urban Forestry (tree.enquiries@leeds.gov.uk)","desc":"","addr":"Woodedge 37 Gledhow Valley Road Gledhow Leeds LS8 4DP","postcode":"LS8 4DP","link":"https://publicaccess.leeds.gov.uk/online-applications/applicationDetails.do?keyVal=T6ZR26JBIJF00&activeTab=summary","status":"Unknown","date_received":"2025-12-29","lat":53.820696,"lng":-1.514859},{"id":"Part two storey, part single storey side and rear extension","desc":"","addr":"45 Grange Park Road Roundhay Leeds LS8 3BJ","postcode":"LS8 3BJ","link":"https://publicaccess.leeds.gov.uk/online-applications/applicationDetails.do?keyVal=T6Y7QYJB0C000&activeTab=summary","status":"Unknown","date_received":"2025-12-29","lat":53.820725,"lng":-1.483126},{"id":"Single storey side/rear extension; replacement windows to first floor side and rear","desc":"","addr":"59 Chelwood Avenue Moor Allerton Leeds LS8 2BA","postcode":"LS8 2BA","link":"https://publicaccess.leeds.gov.uk/online-applications/applicationDetails.do?keyVal=T6KX6KJBLU300&activeTab=summary","status":"Unknown","date_received":"2025-12-29","lat":53.84737,"lng":-1.523155},{"id":"Certificate of Proposed Lawful Development for an extension to the gable, dormer window to the rear, rooflight to the front, installation of a soil and vent pipe to side and replacement first floor windows to side and rear","desc":"","addr":"59 Chelwood Avenue Moor Allerton Leeds LS8 2BA","postcode":"LS8 2BA","link":"https://publicaccess.leeds.gov.uk/online-applications/applicationDetails.do?keyVal=T6KX71JBLU500&activeTab=summary","status":"Unknown","date_received":"2025-12-29","lat":53.84737,"lng":-1.523155},{"id":"Certificate of Proposed Lawful Development for a single storey rear extension","desc":"","addr":"8 Fearnville Grove Roundhay Leeds LS8 3DR","postcode":"LS8 3DR","link":"https://publicaccess.leeds.gov.uk/online-applications/applicationDetails.do?keyVal=T5Q23IJBLBR00&activeTab=summary","status":"Unknown","date_received":"2025-12-29","lat":53.819637,"lng":-1.484901},{"id":"T1 Flowering Cherry: Reduce T 2 Lime: Pollard T3 Silver Birch: Fell. WORK SOUGHT FOLLOWING REQUEST FROM NEIGHBOURS TO GIVE THEIR PROPERTY AT 3 WEDGEWOOD DRIVE MORE LIGHT","desc":"","addr":"1 Wedgewood Drive Lidgett Park Leeds LS8 1EF","postcode":"LS8 1EF","link":"https://publicaccess.leeds.gov.uk/online-applications/applicationDetails.do?keyVal=T6LJWDJBLYB00&activeTab=summary","status":"Unknown","date_received":"2025-12-29","lat":53.837221,"lng":-1.509456},{"id":"Change of use from dwelling (Class C3) to childrens' care home (Class C2)","desc":"","addr":"193 Easterly Road Gipton Leeds LS8 2RB","postcode":"LS8 2RB","link":"https://publicaccess.leeds.gov.uk/online-applications/applicationDetails.do?keyVal=T67YYCJBGW700&activeTab=summary","status":"Unknown","date_received":"2025-12-29","lat":53.820877,"lng":-1.497752},{"id":"Installation of ground mounted batteries and associated works to form steel enclosure and hard surfacing","desc":"","addr":"St Edmunds Church Lidgett Park Road Lidgett Park Leeds LS8 1JN","postcode":"LS8 1JN","link":"https://publicaccess.leeds.gov.uk/online-applications/applicationDetails.do?keyVal=T67Z4CJBGWP00&activeTab=summary","status":"Unknown","date_received":"2025-12-29","lat":53.837796,"lng":-1.513705},{"id":"Single storey side extension","desc":"","addr":"29 Talbot Road Moor Allerton Leeds LS8 1AG","postcode":"LS8 1AG","link":"https://publicaccess.leeds.gov.uk/online-applications/applicationDetails.do?keyVal=T5IC6LJB0C000&activeTab=summary","status":"Unknown","date_received":"2025-12-29","lat":53.843045,"lng":-1.518188},{"id":"T1 Sycamore: Remove G2 : Cut back trees by2-3m","desc":"","addr":"Spire Healthcare Ltd Spire Leeds Hospital Jackson Avenue Gledhow Leeds LS8 1NT","postcode":"LS8 1NT","link":"https://publicaccess.leeds.gov.uk/online-applications/applicationDetails.do?keyVal=T6BPI2JB14E00&activeTab=summary","status":"Unknown","date_received":"2025-12-29","lat":53.832485,"lng":-1.513933},{"id":"T2 Wych Elm: Fell, T34 Sycamore: Prune to provide 4m clearance of building. T38 Lime, Remove Epicormic growth. T56 Lime: Remove epicormic branches touching the garage. T60 Sycamore: Fell T66 Cherry: Prune all round to give better clearance form building. T71 Cherry Laurel: Prune all round to manage its size T72 Group: Trim the side branches to manage as a hedge. T89 Ash: Remove dead branches.","desc":"","addr":"Fernwood Park Villas Lidgett Park Leeds LS8 1SQ","postcode":"LS8 1SQ","link":"https://publicaccess.leeds.gov.uk/online-applications/applicationDetails.do?keyVal=T67Z3JJBGWN00&activeTab=summary","status":"Unknown","date_received":"2025-12-29","lat":53.84029,"lng":-1.508296},{"id":"T1051 Beech: Raise crown above path to 5m T1015 Hawthorn, T1077 Leyland Cypress: Fell to ground level. T1099 Deodar Cedar: Raise crown above path to 3m. T1088 Silver Birch: Raise crown to 4m above car park.","desc":"","addr":"Roundhay School Gledhow Lane Gledhow Leeds LS8 1ND","postcode":"LS8 1ND","link":"https://publicaccess.leeds.gov.uk/online-applications/applicationDetails.do?keyVal=T630ITJBG9C00&activeTab=summary","status":"Unknown","date_received":"2025-12-29","lat":53.830746,"lng":-1.510671},{"id":"Single storey rear extension","desc":"","addr":"18 Bracken Edge Chapeltown Leeds LS8 4EE","postcode":"LS8 4EE","link":"https://publicaccess.leeds.gov.uk/online-applications/applicationDetails.do?keyVal=T60JV6JBMVC00&activeTab=summary","status":"Unknown","date_received":"2025-12-29","lat":53.822286,"lng":-1.519139},{"id":"Certificate of Proposed Lawful Development for a single storey side and rear infil extension, a hip to gable roof extension, a dormer window to rear, fenestration alterations to side and rear, rooflights to front and rear, and removal of chimney.","desc":"","addr":"47 Chandos Gardens Gledhow Leeds LS8 1LP","postcode":"LS8 1LP","link":"https://publicaccess.leeds.gov.uk/online-applications/applicationDetails.do?keyVal=T5VANFJBM2S00&activeTab=summary","status":"Unknown","date_received":"2025-12-29","lat":53.833862,"lng":-1.523566},{"id":"Certificate of Proposed Lawful Development for an extension to the gable; dormer window with juliette balcony to the rear; rooflights to the front; single storey side extension; removal of chimney.","desc":"","addr":"14 St Margarets Grove Gledhow Leeds LS8 1RZ","postcode":"LS8 1RZ","link":"https://publicaccess.leeds.gov.uk/online-applications/applicationDetails.do?keyVal=T5VG8MJBM3T00&activeTab=summary","status":"Unknown","date_received":"2025-12-29","lat":53.82749,"lng":-1.514568},{"id":"Single storey side extension, demolition of an existing conservatory","desc":"","addr":"4 Rossington Road Gipton Leeds LS8 2SU","postcode":"LS8 2SU","link":"https://publicaccess.leeds.gov.uk/online-applications/applicationDetails.do?keyVal=T5NNOQJB30600&activeTab=summary","status":"Unknown","date_received":"2025-12-29","lat":53.820638,"lng":-1.509558},{"id":"Conversion of existing ancillary seating area of restaurant takeaway to a manager studio flat with alterations including blocking up of door to rear and creation of new door and external access staircase to side","desc":"","addr":"244 Roundhay Road Leeds LS8 5RL","postcode":"LS8 5RL","link":"https://publicaccess.leeds.gov.uk/online-applications/applicationDetails.do?keyVal=T5NN61JB30600&activeTab=summary","status":"Unknown","date_received":"2025-12-29","lat":53.81733,"lng":-1.516097},{"id":"T1: Fell","desc":"","addr":"2 Greycourt Gledhow Lane Gledhow Leeds LS8 1NQ","postcode":"LS8 1NQ","link":"https://publicaccess.leeds.gov.uk/online-applications/applicationDetails.do?keyVal=T8HTVXJB14E00&activeTab=summary","status":"Unknown","date_received":"2026-01-09","lat":53.829333,"lng":-1.519317},{"id":"Single storey side extension with pitched roof and roof lights","desc":"","addr":"21 West Park Grove Roundhay Leeds LS8 2DX","postcode":"LS8 2DX","link":"https://publicaccess.leeds.gov.uk/online-applications/applicationDetails.do?keyVal=T88CHCJBKYJ00&activeTab=summary","status":"Unknown","date_received":"2026-01-09","lat":53.846559,"lng":-1.507007},{"id":"T3 Sweet Chestnut - Remove The tree works are proposed to stop the influence of the tree(s) on the soil below building foundation level and provide long term stability to 4 Lidgett Park Road","desc":"","addr":"2E Lidgett Park Road Lidgett Park Leeds LS8 1EQ","postcode":"LS8 1EQ","link":"https://publicaccess.leeds.gov.uk/online-applications/applicationDetails.do?keyVal=T88CFRJBKYF00&activeTab=summary","status":"Unknown","date_received":"2026-01-09","lat":53.83815,"lng":-1.51016},{"id":"S1 Holly - Remove T1 Sycamore - Remove T2 Rowan - Remove The tree works are proposed to stop the influence of the tree(s) on the soil below building foundation level and provide long term stability to 4 Lidgett Park Road","desc":"","addr":"4 Lidgett Park Road Lidgett Park Leeds LS8 1EQ","postcode":"LS8 1EQ","link":"https://publicaccess.leeds.gov.uk/online-applications/applicationDetails.do?keyVal=T88CEZJBKYD00&activeTab=summary","status":"Unknown","date_received":"2026-01-09","lat":53.83815,"lng":-1.51016},{"id":"Consent, agreement or approval required by conditions 4 (Windows/Openings/cladding), 6 (Hard and soft landscaping) and 9 (EV Charging Points) of Planning Application 24/06264/FU","desc":"","addr":"3B North Park Avenue Lidgett Park Leeds LS8 1DN","postcode":"LS8 1DN","link":"https://publicaccess.leeds.gov.uk/online-applications/applicationDetails.do?keyVal=T7PNS8JBI4U00&activeTab=summary","status":"Unknown","date_received":"2026-01-09","lat":53.838885,"lng":-1.50968},{"id":"Certificate of Proposed Lawful Development for rear dormer window and erection of solar panels to front and rear","desc":"","addr":"30 Larkhill Close Gledhow Leeds LS8 1QZ","postcode":"LS8 1QZ","link":"https://publicaccess.leeds.gov.uk/online-applications/applicationDetails.do?keyVal=T7I9Q8JBMXU00&activeTab=summary","status":"Unknown","date_received":"2026-01-09","lat":53.837071,"lng":-1.523423},{"id":"Certificate of Existing Lawful Development for Use as a house in multiple occupation","desc":"","addr":"12 Elford Grove Harehills Leeds LS8 5QF","postcode":"LS8 5QF","link":"https://publicaccess.leeds.gov.uk/online-applications/applicationDetails.do?keyVal=T7GEZFJBMNH00&activeTab=summary","status":"Unknown","date_received":"2026-01-09","lat":53.81179,"lng":-1.519699},{"id":"Certificate of Existing Lawful Development for Use as a house in multiple occupation","desc":"","addr":"20 Elford Grove Harehills Leeds LS8 5QF","postcode":"LS8 5QF","link":"https://publicaccess.leeds.gov.uk/online-applications/applicationDetails.do?keyVal=T7GENAJBMND00&activeTab=summary","status":"Unknown","date_received":"2026-01-09","lat":53.81179,"lng":-1.519699},{"id":"Certificate of Existing Lawful Development for Use as a house in multiple occupation","desc":"","addr":"10 Elford Grove Harehills Leeds LS8 5QF","postcode":"LS8 5QF","link":"https://publicaccess.leeds.gov.uk/online-applications/applicationDetails.do?keyVal=T7GETCJBMNF00&activeTab=summary","status":"Unknown","date_received":"2026-01-09","lat":53.81179,"lng":-1.519699},{"id":"First floor extension to the rear","desc":"","addr":"17 Lawrence Avenue Gipton Leeds LS8 3HU","postcode":"LS8 3HU","link":"https://publicaccess.leeds.gov.uk/online-applications/applicationDetails.do?keyVal=T7DFGLJB2QX00&activeTab=summary","status":"Unknown","date_received":"2026-01-09","lat":53.818802,"lng":-1.497944},{"id":"Reduced boundary wall with stone cladding, and revised landscaping with bin store and bike storage in garage","desc":"","addr":"67 Ridgeway Gledhow Leeds LS8 4DD","postcode":"LS8 4DD","link":"https://publicaccess.leeds.gov.uk/online-applications/applicationDetails.do?keyVal=T6QY0RJBGEV00&activeTab=summary","status":"Unknown","date_received":"2026-01-09","lat":53.824856,"lng":-1.51674},{"id":"Single storey rear extension; demolition of conservatory","desc":"","addr":"44 Sutherland Avenue Lidgett Park Leeds LS8 1BZ","postcode":"LS8 1BZ","link":"https://publicaccess.leeds.gov.uk/online-applications/applicationDetails.do?keyVal=T8QP1SJBHJR00&activeTab=summary","status":"Unknown","date_received":"2026-01-16","lat":53.842678,"lng":-1.5119},{"id":"Apple: Reduce the height of the tree by approx 1.5m to where previously pruned. In addition there a few branches encroaching over neighbours property to be removed.","desc":"","addr":"34 The Drive Lidgett Park Leeds LS8 1JH","postcode":"LS8 1JH","link":"https://publicaccess.leeds.gov.uk/online-applications/applicationDetails.do?keyVal=T8QP3EJBHK100&activeTab=summary","status":"Unknown","date_received":"2026-01-16","lat":53.835839,"lng":-1.514396},{"id":"4.50m single storey rear extension, 4.0m to ridge height and 2.75m to eaves","desc":"","addr":"1 Easterly View Gipton Leeds LS8 3PU","postcode":"LS8 3PU","link":"https://publicaccess.leeds.gov.uk/online-applications/applicationDetails.do?keyVal=T8QP3OJBHK300&activeTab=summary","status":"Unknown","date_received":"2026-01-16","lat":53.815743,"lng":-1.501535},{"id":"5.06m single storey rear extension, 2.84m to ridge height and 2.84m to eaves","desc":"","addr":"131 Kedleston Road Moor Allerton Leeds LS8 2AU","postcode":"LS8 2AU","link":"https://publicaccess.leeds.gov.uk/online-applications/applicationDetails.do?keyVal=T8LG0QJBGJN00&activeTab=summary","status":"Unknown","date_received":"2026-01-16","lat":53.846576,"lng":-1.520124},{"id":"Garden shed to side","desc":"","addr":"The Manor House 6 Park Avenue Roundhay Leeds LS8 2JH","postcode":"LS8 2JH","link":"https://publicaccess.leeds.gov.uk/online-applications/applicationDetails.do?keyVal=T8JLBOJBG8000&activeTab=summary","status":"Unknown","date_received":"2026-01-16","lat":53.830674,"lng":-1.499732},{"id":"Single storey rear extension; conversion of existing rear double doors to bi folding doors","desc":"","addr":"23 Ridgeway Gledhow Leeds LS8 4DD","postcode":"LS8 4DD","link":"https://publicaccess.leeds.gov.uk/online-applications/applicationDetails.do?keyVal=T8JAA7JBG3G00&activeTab=summary","status":"Unknown","date_received":"2026-01-16","lat":53.824856,"lng":-1.51674},{"id":"Part two storey, part first floor, part single storey extension to side including a car port","desc":"","addr":"17 Gipton Wood Place Gipton Leeds LS8 2SD","postcode":"LS8 2SD","link":"https://publicaccess.leeds.gov.uk/online-applications/applicationDetails.do?keyVal=T8FW2EJBFK200&activeTab=summary","status":"Unknown","date_received":"2026-01-16","lat":53.821573,"lng":-1.505051},{"id":"Single storey extension to the side and rear; insertion of windows to the side","desc":"","addr":"60 Shaftesbury Avenue Lidgett Park Leeds LS8 1DS","postcode":"LS8 1DS","link":"https://publicaccess.leeds.gov.uk/online-applications/applicationDetails.do?keyVal=T7PNPXJBI4S00&activeTab=summary","status":"Unknown","date_received":"2026-01-16","lat":53.841166,"lng":-1.511356},{"id":"Retrospective application for addition of flue to rear outbuilding","desc":"","addr":"3 The View Lidgett Park Leeds LS8 1JL","postcode":"LS8 1JL","link":"https://publicaccess.leeds.gov.uk/online-applications/applicationDetails.do?keyVal=T7F5WKJBMK500&activeTab=summary","status":"Unknown","date_received":"2026-01-16","lat":53.836895,"lng":-1.513138}]