[{"id":"Increased ridge height of previously approved two storey side extension by 350mm and erection of rear dormer loft conversion.","desc":"","addr":"62 Teevan Road Croydon CR0 6RN","postcode":"CR0 6RN","link":"https://publicaccess3.croydon.gov.uk/online-applications/applicationDetails.do?keyVal=T7BBQXJLHA900&activeTab=summary","status":"Unknown","date_received":"2026-01-08","lat":51.382571,"lng":-0.071706},{"id":"Erection of part four/five storey building to provide twenty-two (22) self-contained flats (Use Class C3) with associated amenity, cycle storage, and waste storage spaces (following demolition of existing car showroom) (Use Class Sui Generis) and associated alterations including landscaping","desc":"","addr":"Land R/O 25 - 41 South End Croydon CR0 1BE","postcode":"CR0 1BE","link":"https://publicaccess3.croydon.gov.uk/online-applications/applicationDetails.do?keyVal=T83186JLHWQ00&activeTab=summary","status":"Unknown","date_received":"2026-01-14","lat":51.366889,"lng":-0.098741},{"id":"Non material amendment to permission 23/01737/FUL for Demolition of the existing building and redevelopment of a mixed-use 6 storey building comprising commercial at ground floor (Class E) and 21 flats on upper floors, with improvements to the Thomas Turner path forming a high quality pedestrian connection and a new pocket public space (amended description and plans). (Change: ground floor layout)","desc":"","addr":"3 - 7 Park Street Croydon CR0 1YD","postcode":"CR0 1YD","link":"https://publicaccess3.croydon.gov.uk/online-applications/applicationDetails.do?keyVal=T7IMXOJLHRD00&activeTab=summary","status":"Unknown","date_received":"2026-01-14","lat":51.373684,"lng":-0.097972},{"id":"T1 Sycamore Tree: Cut back tree from building by 2 metres. (TPO 09, 1974)","desc":"","addr":"Garlands Court Chatsworth Road Croydon CR0 1HY","postcode":"CR0 1HY","link":"https://publicaccess3.croydon.gov.uk/online-applications/applicationDetails.do?keyVal=T8SRCXJLIZS00&activeTab=summary","status":"Unknown","date_received":"2026-01-15","lat":51.367284,"lng":-0.093726},{"id":"PROPOSED SINGLE STOREY EXTENSION","desc":"","addr":"41 Sumner Road Croydon CR0 3LN","postcode":"CR0 3LN","link":"https://publicaccess3.croydon.gov.uk/online-applications/applicationDetails.do?keyVal=T2MM54JLHGS00&activeTab=summary","status":"Unknown","date_received":"2026-01-15","lat":51.381827,"lng":-0.109907},{"id":"Erection of an electric barrier serving communal carpark of Flats 1-21 Songhurst Close.","desc":"","addr":"1 - 21 Songhurst Close Croydon CR0 3RQ","postcode":"CR0 3RQ","link":"https://publicaccess3.croydon.gov.uk/online-applications/applicationDetails.do?keyVal=SXOWX9JLHM600&activeTab=summary","status":"Unknown","date_received":"2026-01-15","lat":51.388633,"lng":-0.124948}]