[{"id":"Increased ridge height of previously approved two storey side extension by 350mm and erection of rear dormer loft conversion.","desc":"","addr":"62 Teevan Road Croydon CR0 6RN","postcode":"CR0 6RN","link":"https://publicaccess3.croydon.gov.uk/online-applications/applicationDetails.do?keyVal=T7BBQXJLHA900&activeTab=summary","status":"Unknown","date_received":"2026-01-08","lat":51.382571,"lng":-0.071706},{"id":"Erection of part four/five storey building to provide twenty-two (22) self-contained flats (Use Class C3) with associated amenity, cycle storage, and waste storage spaces (following demolition of existing car showroom) (Use Class Sui Generis) and associated alterations including landscaping","desc":"","addr":"Land R/O 25 - 41 South End Croydon CR0 1BE","postcode":"CR0 1BE","link":"https://publicaccess3.croydon.gov.uk/online-applications/applicationDetails.do?keyVal=T83186JLHWQ00&activeTab=summary","status":"Unknown","date_received":"2026-01-14","lat":51.366889,"lng":-0.098741},{"id":"Non material amendment to permission 23/01737/FUL for Demolition of the existing building and redevelopment of a mixed-use 6 storey building comprising commercial at ground floor (Class E) and 21 flats on upper floors, with improvements to the Thomas Turner path forming a high quality pedestrian connection and a new pocket public space (amended description and plans). (Change: ground floor layout)","desc":"","addr":"3 - 7 Park Street Croydon CR0 1YD","postcode":"CR0 1YD","link":"https://publicaccess3.croydon.gov.uk/online-applications/applicationDetails.do?keyVal=T7IMXOJLHRD00&activeTab=summary","status":"Unknown","date_received":"2026-01-14","lat":51.373684,"lng":-0.097972},{"id":"T1 Sycamore Tree: Cut back tree from building by 2 metres. (TPO 09, 1974)","desc":"","addr":"Garlands Court Chatsworth Road Croydon CR0 1HY","postcode":"CR0 1HY","link":"https://publicaccess3.croydon.gov.uk/online-applications/applicationDetails.do?keyVal=T8SRCXJLIZS00&activeTab=summary","status":"Unknown","date_received":"2026-01-15","lat":51.367284,"lng":-0.093726},{"id":"PROPOSED SINGLE STOREY EXTENSION","desc":"","addr":"41 Sumner Road Croydon CR0 3LN","postcode":"CR0 3LN","link":"https://publicaccess3.croydon.gov.uk/online-applications/applicationDetails.do?keyVal=T2MM54JLHGS00&activeTab=summary","status":"Unknown","date_received":"2026-01-15","lat":51.381827,"lng":-0.109907},{"id":"Erection of an electric barrier serving communal carpark of Flats 1-21 Songhurst Close.","desc":"","addr":"1 - 21 Songhurst Close Croydon CR0 3RQ","postcode":"CR0 3RQ","link":"https://publicaccess3.croydon.gov.uk/online-applications/applicationDetails.do?keyVal=SXOWX9JLHM600&activeTab=summary","status":"Unknown","date_received":"2026-01-15","lat":51.388633,"lng":-0.124948},{"id":"T1 Birch - Fell","desc":"","addr":"1 Cheston Avenue Croydon CR0 8DE","postcode":"CR0 8DE","link":"https://publicaccess3.croydon.gov.uk/online-applications/applicationDetails.do?keyVal=T95YDSJLJLZ00&activeTab=summary","status":"Unknown","date_received":"2026-01-22","lat":51.377317,"lng":-0.041779},{"id":"Demolition of the existing commercial building and erection of a furniture distribution warehouse (Use Class B8), including associated servicing area, cycle and refuse storage, boundary treatments, and access works.","desc":"","addr":"111 Canterbury Road Croydon CR0 3HH","postcode":"CR0 3HH","link":"https://publicaccess3.croydon.gov.uk/online-applications/applicationDetails.do?keyVal=T94C34JLJJB00&activeTab=summary","status":"Unknown","date_received":"2026-01-22","lat":51.385414,"lng":-0.116571},{"id":"Erection of single-storey front extension, single/two-storey side and rear wraparound extension (in place of the existing side extension, detached garage and rear conservatory), rear dormers, extension/alteration to the existing patio, and all associated works.","desc":"","addr":"8 Harland Avenue Croydon CR0 5QB","postcode":"CR0 5QB","link":"https://publicaccess3.croydon.gov.uk/online-applications/applicationDetails.do?keyVal=T8FZO6JLIFS00&activeTab=summary","status":"Unknown","date_received":"2026-01-22","lat":51.371611,"lng":-0.076204},{"id":"Erection of a single storey rear extension which projects out from the rear wall of the original house by 6 metres, with an eaves height of 2.6 metres and a maximum roof height of 3.6 metres.","desc":"","addr":"22 Selwood Road Croydon CR0 7JR","postcode":"CR0 7JR","link":"https://publicaccess3.croydon.gov.uk/online-applications/applicationDetails.do?keyVal=T95JZGJLJK500&activeTab=summary","status":"Unknown","date_received":"2026-01-23","lat":51.377725,"lng":-0.065803}]