[{"id":"Phased development comprising: (a) Partial removal of existing structures and erection of two buildings comprising purpose-built student accommodation (sui generis), one of 50 storeys and one of 17 storeys with an 8-storey link, together with associated amenity space, external landscaping, highways works, and change of use of the Pendulum Hotel to purpose-built student accommodation; and (b) Removal of remaining existing structures and erection of two buildings comprising purpose-built student accommodation (sui generis), one of 33 storeys and one of part-24 and part-8 storeys with a 1-storey link, together with associated amenity space, external landscaping, and highways works.","desc":"","addr":"Weston Student Halls And Pendulum Hotel 78 Sackville Street Manchester M1 3BB","postcode":"M1 3BB","link":"https://pa.manchester.gov.uk/online-applications/applicationDetails.do?keyVal=T7DCK4BCLLI00&activeTab=summary","status":"Unknown","date_received":"2025-12-29","lat":53.474312,"lng":-2.23508},{"id":"Discharge of Conditions 19 (External Lighting), 30 (Secure By Design) and 39 (Solar Panels) attached to Planning Permission 137807/JO/2023.","desc":"","addr":"1NQ Tariff Street Manchester M1 2FF","postcode":"M1 2FF","link":"https://pa.manchester.gov.uk/online-applications/applicationDetails.do?keyVal=T75II1BCLGR00&activeTab=summary","status":"Unknown","date_received":"2025-12-29","lat":53.481435,"lng":-2.232572},{"id":"Variation of Condition 2(e) (Waste Management Strategy) attached to Planning Permission 141176/JO/2024 as amended by 142052/NMC/2025.","desc":"","addr":"Rammon House 1 Portugal Street East Manchester M1 2WX","postcode":"M1 2WX","link":"https://pa.manchester.gov.uk/online-applications/applicationDetails.do?keyVal=T7621VBCLHR00&activeTab=summary","status":"Unknown","date_received":"2025-12-29","lat":0.0,"lng":0.0},{"id":"Discharge of Conditions 10 (Sustainability Verification) and 20 (Travel Plan) attached to Planning Permission 120149/FO/2018 as amended by 133194/NMC/2022 and 140723/NMC/2024.","desc":"","addr":"Car Park Between 57 And 59 Ducie Street M1 2QJ","postcode":"M1 2QJ","link":"https://pa.manchester.gov.uk/online-applications/applicationDetails.do?keyVal=T73TEKBCLFK00&activeTab=summary","status":"Unknown","date_received":"2025-12-29","lat":0.0,"lng":0.0},{"id":"Discharge of Condition 24 (Residential Management Strategy) attached to Planning Permission 141176/JO/2024 as amended by 142052/NMC/2025","desc":"","addr":"Rammon House 1 Portugal Street East Manchester M1 2WX","postcode":"M1 2WX","link":"https://pa.manchester.gov.uk/online-applications/applicationDetails.do?keyVal=T71T6FBCLE100&activeTab=summary","status":"Unknown","date_received":"2025-12-29","lat":0.0,"lng":0.0},{"id":"Installation of 1no. logo sign to entrance gate.","desc":"","addr":"Fumo By San Carlo One St. Peter's Square Oxford Street Manchester M1 5AN","postcode":"M1 5AN","link":"https://pa.manchester.gov.uk/online-applications/applicationDetails.do?keyVal=T6YHRTBCLAZ00&activeTab=summary","status":"Unknown","date_received":"2025-12-29","lat":53.477108,"lng":-2.243683},{"id":"Installation of entrance gate to external seating area.","desc":"","addr":"Fumo By San Carlo One St. Peter's Square Oxford Street Manchester M1 5AN","postcode":"M1 5AN","link":"https://pa.manchester.gov.uk/online-applications/applicationDetails.do?keyVal=T6YHRNBCLAY00&activeTab=summary","status":"Unknown","date_received":"2025-12-29","lat":53.477108,"lng":-2.243683},{"id":"Installation of 1no internally illuminated projecting sign.","desc":"","addr":"Ladbrokes 2 Gateway House Piccadilly Station Approach Manchester M1 2GH","postcode":"M1 2GH","link":"https://pa.manchester.gov.uk/online-applications/applicationDetails.do?keyVal=T6OP2FBCL4Z00&activeTab=summary","status":"Unknown","date_received":"2025-12-29","lat":53.478408,"lng":-2.231712},{"id":"Proposed alteration to existing elevation at ground floor.","desc":"","addr":"1 Hillcourt Street Manchester M1 7HU","postcode":"M1 7HU","link":"https://pa.manchester.gov.uk/online-applications/applicationDetails.do?keyVal=T6BXSKBC0CT00&activeTab=summary","status":"Unknown","date_received":"2025-12-29","lat":53.470813,"lng":-2.236085},{"id":"Non-material amendment to planning permission 143253/FO/2025 to change description of development to refer to serviced accommodation.","desc":"","addr":"Boulton House 17 - 21 Chorlton Street Manchester M1 3HY","postcode":"M1 3HY","link":"https://pa.manchester.gov.uk/online-applications/applicationDetails.do?keyVal=T6SS57BCL8T00&activeTab=summary","status":"Unknown","date_received":"2025-12-29","lat":53.478173,"lng":-2.236758},{"id":"Non material amendment to planning permission 127538/FO/2020 as amended by app ref no 137960/NMC/2023 to vary the wording of condition 38 (Main Contract Date).","desc":"","addr":"69 - 75 Piccadilly Manchester M1 2BS","postcode":"M1 2BS","link":"https://pa.manchester.gov.uk/online-applications/applicationDetails.do?keyVal=T6NJ9UBCL4I00&activeTab=summary","status":"Unknown","date_received":"2025-12-29","lat":53.480767,"lng":-2.234106},{"id":"Variation to Listed Building Consent 137958/JO/2023 to amend Condition 10 (phasing).","desc":"","addr":"69 - 75 Piccadilly Manchester M1 2BS","postcode":"M1 2BS","link":"https://pa.manchester.gov.uk/online-applications/applicationDetails.do?keyVal=T6MULUBCL2W00&activeTab=summary","status":"Unknown","date_received":"2025-12-29","lat":53.480767,"lng":-2.234106},{"id":"Change of use of ground floor from Class E to Sui Generis Adult Gaming Centre, with installation of 2no replacement air conditioning units and elevational alterations including new doors to Portland Street and Reyner Street.","desc":"","addr":"Basement To First Floor 58 - 60 Portland Street Manchester M1 4QT","postcode":"M1 4QT","link":"https://pa.manchester.gov.uk/online-applications/applicationDetails.do?keyVal=T5CTCGBCKD900&activeTab=summary","status":"Unknown","date_received":"2025-12-29","lat":53.478258,"lng":-2.239275},{"id":"Listed Building Consent for internal works to 8th floor.","desc":"","addr":"40 Princess Street Manchester M1 6DE","postcode":"M1 6DE","link":"https://pa.manchester.gov.uk/online-applications/applicationDetails.do?keyVal=T6DYV2BCKYN00&activeTab=summary","status":"Unknown","date_received":"2025-12-29","lat":53.477097,"lng":-2.239977},{"id":"Listed Building Consent for internal reconfiguration works to seventh floor.","desc":"","addr":"44-46A Princess Street Manchester M1 6DE","postcode":"M1 6DE","link":"https://pa.manchester.gov.uk/online-applications/applicationDetails.do?keyVal=T6DYYZBCKYP00&activeTab=summary","status":"Unknown","date_received":"2025-12-29","lat":53.477097,"lng":-2.239977},{"id":"Installation of 1no. non-illuminated fascia sign.","desc":"","addr":"74 - 76 Market Street Manchester M1 1PN","postcode":"M1 1PN","link":"https://pa.manchester.gov.uk/online-applications/applicationDetails.do?keyVal=T6ADNXBCKWG00&activeTab=summary","status":"Unknown","date_received":"2025-12-29","lat":53.482317,"lng":-2.240985},{"id":"Discharge of Condition 4 (scaffolding details) attached to Listed Building Consent 141300/LO/2024.","desc":"","addr":"India House 73 - 75 Whitworth Street Manchester M1 6LG","postcode":"M1 6LG","link":"https://pa.manchester.gov.uk/online-applications/applicationDetails.do?keyVal=T6AHULBCKWL00&activeTab=summary","status":"Unknown","date_received":"2025-12-29","lat":53.474968,"lng":-2.239392},{"id":"Installation of 1no. temporary externally illuminated scaffold mounted advertisement banner until 30th September 2026.","desc":"","addr":"103 Portland Street Manchester M1 6DF","postcode":"M1 6DF","link":"https://pa.manchester.gov.uk/online-applications/applicationDetails.do?keyVal=T4SHFCBCJZF00&activeTab=summary","status":"Unknown","date_received":"2025-12-29","lat":53.477268,"lng":-2.240173},{"id":"Listed Building Consent for retention of 1no. internal digital screen.","desc":"","addr":"Tesco Express Unit A St James Buildings 61 - 73 Oxford Street Manchester M1 6EQ","postcode":"M1 6EQ","link":"https://pa.manchester.gov.uk/online-applications/applicationDetails.do?keyVal=STMBM4BCKYD00&activeTab=summary","status":"Unknown","date_received":"2025-12-29","lat":53.475853,"lng":-2.241958},{"id":"Installation of 3no internally illuminated fascia signs, 2no internally illuminated projecting signs, 1no non-illuminated plaque sign and 2no non-illuminated vinyl signs.","desc":"","addr":"44 Oxford Street Manchester M1 5EJ","postcode":"M1 5EJ","link":"https://pa.manchester.gov.uk/online-applications/applicationDetails.do?keyVal=T7EP5SBCLM400&activeTab=summary","status":"Unknown","date_received":"2026-01-08","lat":53.47587,"lng":-2.242546},{"id":"Installation of replacement rooftop plant and associated plant enclosure.","desc":"","addr":"Manchester Travel Inn Metro 112 - 114 Portland Street Manchester M1 4WB","postcode":"M1 4WB","link":"https://pa.manchester.gov.uk/online-applications/applicationDetails.do?keyVal=T6NDQRBCL4600&activeTab=summary","status":"Unknown","date_received":"2026-01-08","lat":53.476635,"lng":-2.241887},{"id":"Listed Building Consent for installation of replacement rooftop plant and associated plant enclosure.","desc":"","addr":"Manchester Travel Inn Metro 112 - 114 Portland Street Manchester M1 4WB","postcode":"M1 4WB","link":"https://pa.manchester.gov.uk/online-applications/applicationDetails.do?keyVal=T6NDQTBCL4700&activeTab=summary","status":"Unknown","date_received":"2026-01-08","lat":53.476635,"lng":-2.241887},{"id":"Listed building consent for installation of 4no condenser units and 2no associated acoustic attenuation units.","desc":"","addr":"Ritz Dance Hall Whitworth Street West Manchester M1 5NQ","postcode":"M1 5NQ","link":"https://pa.manchester.gov.uk/online-applications/applicationDetails.do?keyVal=T3RLMCBCJDT00&activeTab=summary","status":"Unknown","date_received":"2026-01-08","lat":53.474422,"lng":-2.24308},{"id":"Installation of 4no condenser units and 2no associated acoustic attenuation units.","desc":"","addr":"Ritz Dance Hall Whitworth Street West Manchester M1 5NQ","postcode":"M1 5NQ","link":"https://pa.manchester.gov.uk/online-applications/applicationDetails.do?keyVal=T3RLM4BCJDS00&activeTab=summary","status":"Unknown","date_received":"2026-01-08","lat":53.474422,"lng":-2.24308},{"id":"Installation of 2no. illuminated high level building signs and 1no. illuminated entrance sign","desc":"","addr":"Mercure Jarvis Piccadilly Hotel Piccadilly Plaza Manchester M1 4PH","postcode":"M1 4PH","link":"https://pa.manchester.gov.uk/online-applications/applicationDetails.do?keyVal=T8G02OBCM0E00&activeTab=summary","status":"Unknown","date_received":"2026-01-10","lat":53.479789,"lng":-2.237701},{"id":"Erection of a 16 storey building comprising 73 apartments (Use Class C3) with associated residential facilities (residents lounge and terrace), 2 car parking spaces and 52 cycle parking spaces, landscaping, access and associated development.","desc":"","addr":"48 Store Street Manchester M1 2WA","postcode":"M1 2WA","link":"https://pa.manchester.gov.uk/online-applications/applicationDetails.do?keyVal=T7BAIBBC0HO00&activeTab=summary","status":"Unknown","date_received":"2026-01-15","lat":53.479322,"lng":-2.228417}]