[{"id":"ERECTION OF SINGLE STOREY FRONT EXTENSION","desc":"","addr":"144 Privett Road Gosport Hampshire PO12 3SZ","postcode":"PO12 3SZ","link":"https://publicaccess.gosport.gov.uk/online-applications/applicationDetails.do?keyVal=T8FQDXHOH4M00&activeTab=summary","status":"Unknown","date_received":"2026-01-07","lat":50.794336,"lng":-1.160262},{"id":"CHANGE OF USE FROM CARE HOME (CLASS C2) TO A SIX BEDROOM (6 PERSON) SUPPORTED LIVING UNIT, WITH STAFF FACILITIES","desc":"","addr":"22 Brockhurst Road Gosport Hampshire PO12 3DE","postcode":"PO12 3DE","link":"https://publicaccess.gosport.gov.uk/online-applications/applicationDetails.do?keyVal=T6DNVHHOGXH00&activeTab=summary","status":"Unknown","date_received":"2026-01-08","lat":50.804412,"lng":-1.150956},{"id":"CROWN RAISING TO 4 METRES OF 2 SYCAMORE TREE AND 1 ASH TREE","desc":"","addr":"Flat 1 Stronmoor House 31 Bury Road Gosport Hampshire PO12 3UE","postcode":"PO12 3UE","link":"https://publicaccess.gosport.gov.uk/online-applications/applicationDetails.do?keyVal=T8LAH2HOH5R00&activeTab=summary","status":"Unknown","date_received":"2026-01-10","lat":50.792144,"lng":-1.142098},{"id":"ERECTION OF DETACHED GAZEBO WITHIN REAR GARDEN (LISTED BUILDING IN CONSERVATION AREA)","desc":"","addr":"4B Crescent Road Gosport Hampshire PO12 2DH","postcode":"PO12 2DH","link":"https://publicaccess.gosport.gov.uk/online-applications/applicationDetails.do?keyVal=T8JFVXHOH5A00&activeTab=summary","status":"Unknown","date_received":"2026-01-10","lat":50.782762,"lng":-1.145405},{"id":"ERECTION OF OUTBUILDING TO REAR GARDEN","desc":"","addr":"63 Western Way Gosport Hampshire PO12 2NF","postcode":"PO12 2NF","link":"https://publicaccess.gosport.gov.uk/online-applications/applicationDetails.do?keyVal=T8GBVXHO09J00&activeTab=summary","status":"Unknown","date_received":"2026-01-10","lat":50.786871,"lng":-1.156367},{"id":"ERECTION OF SIDE DORMER AND SINGLE STOREY REAR EXTENSION","desc":"","addr":"106 Jellicoe Avenue Gosport Hampshire PO12 2PF","postcode":"PO12 2PF","link":"https://publicaccess.gosport.gov.uk/online-applications/applicationDetails.do?keyVal=T8E203HO09M00&activeTab=summary","status":"Unknown","date_received":"2026-01-10","lat":50.787867,"lng":-1.153696}]